[
  {
    "chain": "shufersal",
    "chain_name": "שופרסל",
    "subchain": "שופרסל שלי",
    "store_id": "1",
    "name": "שלי ת\"א- בן יהודה",
    "address": "בן יהודה 79",
    "city": "תל אביב",
    "zipcode": "6343504",
    "lat": 32.0853,
    "lon": 34.7818
  },
  {
    "chain": "shufersal",
    "chain_name": "שופרסל",
    "subchain": "שופרסל שלי",
    "store_id": "2",
    "name": "שלי ירושלים- אגרון",
    "address": "אגרון 1",
    "city": "ירושלים",
    "zipcode": "942650",
    "lat": 31.7683,
    "lon": 35.2137
  },
  {
    "chain": "shufersal",
    "chain_name": "שופרסל",
    "subchain": "שופרסל שלי",
    "store_id": "3",
    "name": "שלי גבעתיים- סירקין",
    "address": "סירקין 17",
    "city": "גבעתיים",
    "zipcode": "5325101",
    "lat": 32.07,
    "lon": 34.81
  },
  {
    "chain": "shufersal",
    "chain_name": "שופרסל",
    "subchain": "שופרסל שלי",
    "store_id": "4",
    "name": "שלי חיפה- כרמל",
    "address": "שד' הנשיא 124 מר",
    "city": "חיפה",
    "zipcode": "3463305",
    "lat": 32.794,
    "lon": 34.9896
  },
  {
    "chain": "shufersal",
    "chain_name": "שופרסל",
    "subchain": "שופרסל שלי",
    "store_id": "5",
    "name": "שלי ירושלים- יובל",
    "address": "אורוגאי 3",
    "city": "ירושלים",
    "zipcode": "9670102",
    "lat": 31.7683,
    "lon": 35.2137
  },
  {
    "chain": "shufersal",
    "chain_name": "שופרסל",
    "subchain": "שופרסל שלי",
    "store_id": "7",
    "name": "שלי ת\"א- ארלוזורוב",
    "address": "ארלוזרוב 53",
    "city": "תל אביב",
    "zipcode": "6264605",
    "lat": 32.0853,
    "lon": 34.7818
  },
  {
    "chain": "shufersal",
    "chain_name": "שופרסל",
    "subchain": "שופרסל שלי",
    "store_id": "9",
    "name": "שלי נתניה- ויצמן",
    "address": "שד' ויצמן 27",
    "city": "נתניה",
    "zipcode": "4225012",
    "lat": 32.3286,
    "lon": 34.8572
  },
  {
    "chain": "shufersal",
    "chain_name": "שופרסל",
    "subchain": "שופרסל שלי",
    "store_id": "11",
    "name": "שלי ת\"א- נורדאו",
    "address": "אבן גבירול 157",
    "city": "תל אביב",
    "zipcode": "6203719",
    "lat": 32.0853,
    "lon": 34.7818
  },
  {
    "chain": "shufersal",
    "chain_name": "שופרסל",
    "subchain": "יש בשכונה",
    "store_id": "12",
    "name": "יש בני ברק- ירושלים",
    "address": "ירושלים  70",
    "city": "בני-ברק",
    "zipcode": "5144404",
    "lat": null,
    "lon": null
  },
  {
    "chain": "shufersal",
    "chain_name": "שופרסל",
    "subchain": "שופרסל אקספרס",
    "store_id": "140",
    "name": "אקספרס תל חי",
    "address": "",
    "city": "",
    "zipcode": "",
    "lat": null,
    "lon": null
  },
  {
    "chain": "shufersal",
    "chain_name": "שופרסל",
    "subchain": "שופרסל דיל",
    "store_id": "312",
    "name": "דיל חיפה- קרית אליעזר",
    "address": "ככר מאירהוף",
    "city": "חיפה",
    "zipcode": "35154",
    "lat": 32.794,
    "lon": 34.9896
  },
  {
    "chain": "shufersal",
    "chain_name": "שופרסל",
    "subchain": "שופרסל שלי",
    "store_id": "313",
    "name": "שלי קרית חיים-אח\"י אילת",
    "address": "שד.אח\"י אילת 20",
    "city": "קרית חיים",
    "zipcode": "2626907",
    "lat": null,
    "lon": null
  },
  {
    "chain": "shufersal",
    "chain_name": "שופרסל",
    "subchain": "יש בשכונה",
    "store_id": "314",
    "name": "יש חיפה- צרפת",
    "address": "דרך צרפת 11",
    "city": "חיפה",
    "zipcode": "3559602",
    "lat": 32.794,
    "lon": 34.9896
  },
  {
    "chain": "shufersal",
    "chain_name": "שופרסל",
    "subchain": "שופרסל אקספרס",
    "store_id": "315",
    "name": "אקספרס כפר נטר",
    "address": "ההדרים 17",
    "city": "כפר נטר",
    "zipcode": "0",
    "lat": null,
    "lon": null
  },
  {
    "chain": "shufersal",
    "chain_name": "שופרסל",
    "subchain": "שופרסל שלי",
    "store_id": "316",
    "name": "שלי קרית מוצקין-שד ויצמן",
    "address": "ד.ויצמן 1",
    "city": "קרית מוצקין",
    "zipcode": "2635101",
    "lat": null,
    "lon": null
  },
  {
    "chain": "shufersal",
    "chain_name": "שופרסל",
    "subchain": "שופרסל אקספרס",
    "store_id": "317",
    "name": "אקספרס גבעת עדה",
    "address": "חי 67",
    "city": "גבעת עדה",
    "zipcode": "",
    "lat": null,
    "lon": null
  },
  {
    "chain": "shufersal",
    "chain_name": "שופרסל",
    "subchain": "שופרסל אקספרס",
    "store_id": "318",
    "name": "אקספרס חולון - וולפסון",
    "address": "הלוחמים 62",
    "city": "חולון",
    "zipcode": "",
    "lat": 32.0158,
    "lon": 34.7789
  },
  {
    "chain": "shufersal",
    "chain_name": "שופרסל",
    "subchain": "שופרסל שלי",
    "store_id": "319",
    "name": "שלי עכו- שפירא",
    "address": "רח.משה שפירא 28",
    "city": "עכו",
    "zipcode": "2440929",
    "lat": null,
    "lon": null
  },
  {
    "chain": "shufersal",
    "chain_name": "שופרסל",
    "subchain": "Be",
    "store_id": "322",
    "name": "גן העיר תל אביב",
    "address": "אבן גבירול 71",
    "city": "תל אביב",
    "zipcode": "",
    "lat": 32.0853,
    "lon": 34.7818
  },
  {
    "chain": "shufersal",
    "chain_name": "שופרסל",
    "subchain": "Be",
    "store_id": "352",
    "name": "Be טייבה",
    "address": "מרכז שפע אנרגיה",
    "city": "טייבה",
    "zipcode": "",
    "lat": null,
    "lon": null
  },
  {
    "chain": "shufersal",
    "chain_name": "שופרסל",
    "subchain": "שופרסל דיל",
    "store_id": "361",
    "name": "דיל מגדל העמק- א ת דרומי",
    "address": "אזור התעשייה ב",
    "city": "מגדל העמק",
    "zipcode": "2353021",
    "lat": null,
    "lon": null
  },
  {
    "chain": "shufersal",
    "chain_name": "שופרסל",
    "subchain": "יש חסד",
    "store_id": "364",
    "name": "יש חסד בית וגן",
    "address": "1 זנגוויל",
    "city": "ירושלים",
    "zipcode": "",
    "lat": 31.7683,
    "lon": 35.2137
  },
  {
    "chain": "shufersal",
    "chain_name": "שופרסל",
    "subchain": "יש חסד",
    "store_id": "234",
    "name": "יש חסד רסידו",
    "address": "נהר הירדן",
    "city": "בית-שמש",
    "zipcode": "9902101",
    "lat": null,
    "lon": null
  },
  {
    "chain": "shufersal",
    "chain_name": "שופרסל",
    "subchain": "שופרסל אקספרס",
    "store_id": "171",
    "name": "אקספרס אוסטשינסקי",
    "address": "אוסטשינסקי 15",
    "city": "כפר סבא",
    "zipcode": "",
    "lat": 32.178,
    "lon": 34.9065
  },
  {
    "chain": "shufersal",
    "chain_name": "שופרסל",
    "subchain": "יש חסד",
    "store_id": "73",
    "name": "יש חסד אשדוד",
    "address": "חנה סנש 9",
    "city": "אשדוד",
    "zipcode": "7747303",
    "lat": 31.8044,
    "lon": 34.6553
  },
  {
    "chain": "shufersal",
    "chain_name": "שופרסל",
    "subchain": "יש חסד",
    "store_id": "62",
    "name": "יש חסד רכסים",
    "address": "הכלניות 49",
    "city": "רכסים",
    "zipcode": "",
    "lat": null,
    "lon": null
  },
  {
    "chain": "shufersal",
    "chain_name": "שופרסל",
    "subchain": "שופרסל אקספרס",
    "store_id": "391",
    "name": "אקספרס אלקנה",
    "address": "אלנקווה",
    "city": "אלנקווה",
    "zipcode": "",
    "lat": null,
    "lon": null
  },
  {
    "chain": "shufersal",
    "chain_name": "שופרסל",
    "subchain": "Be",
    "store_id": "650",
    "name": "BE חיפה",
    "address": "ניו פארם חיפה",
    "city": "חיפה",
    "zipcode": "",
    "lat": 32.794,
    "lon": 34.9896
  },
  {
    "chain": "shufersal",
    "chain_name": "שופרסל",
    "subchain": "Be",
    "store_id": "634",
    "name": "BEבת ים",
    "address": "קניון בת ים יוספטל 92",
    "city": "בת ים",
    "zipcode": "",
    "lat": 32.0231,
    "lon": 34.7518
  },
  {
    "chain": "shufersal",
    "chain_name": "שופרסל",
    "subchain": "Be",
    "store_id": "623",
    "name": "BE סביונים",
    "address": "סביונים",
    "city": "יהוד",
    "zipcode": "",
    "lat": null,
    "lon": null
  },
  {
    "chain": "shufersal",
    "chain_name": "שופרסל",
    "subchain": "Be",
    "store_id": "639",
    "name": "BE אריאל",
    "address": "הבנאי 3",
    "city": "אריאל",
    "zipcode": "",
    "lat": null,
    "lon": null
  },
  {
    "chain": "shufersal",
    "chain_name": "שופרסל",
    "subchain": "Be",
    "store_id": "643",
    "name": "BE פתח תקוה",
    "address": "פתח תקוה",
    "city": "פתח תקוה",
    "zipcode": "",
    "lat": null,
    "lon": null
  },
  {
    "chain": "shufersal",
    "chain_name": "שופרסל",
    "subchain": "Be",
    "store_id": "615",
    "name": "BE כפר סבא",
    "address": "כפר סבא",
    "city": "כפר סבא",
    "zipcode": "",
    "lat": 32.178,
    "lon": 34.9065
  },
  {
    "chain": "shufersal",
    "chain_name": "שופרסל",
    "subchain": "Be",
    "store_id": "640",
    "name": "BE דלית אל כרמל",
    "address": "דלית אל כרמל",
    "city": "דלית אל כרמל",
    "zipcode": "",
    "lat": null,
    "lon": null
  },
  {
    "chain": "shufersal",
    "chain_name": "שופרסל",
    "subchain": "Be",
    "store_id": "633",
    "name": "BE נשר תל-חנן",
    "address": "נשר תל-חנן",
    "city": "נשר",
    "zipcode": "",
    "lat": null,
    "lon": null
  },
  {
    "chain": "shufersal",
    "chain_name": "שופרסל",
    "subchain": "Be",
    "store_id": "668",
    "name": "BE קריית השרון נתניה",
    "address": "קריית השרון נתניה",
    "city": "נתניה",
    "zipcode": "",
    "lat": 32.3286,
    "lon": 34.8572
  },
  {
    "chain": "shufersal",
    "chain_name": "שופרסל",
    "subchain": "Be",
    "store_id": "638",
    "name": "BE   משמר השרון",
    "address": "משמר השרון",
    "city": "משמר השרון",
    "zipcode": "",
    "lat": null,
    "lon": null
  },
  {
    "chain": "shufersal",
    "chain_name": "שופרסל",
    "subchain": "Be",
    "store_id": "620",
    "name": "BE מלכת שבא אילת",
    "address": "פעמי השלום 19",
    "city": "אילת",
    "zipcode": "",
    "lat": null,
    "lon": null
  },
  {
    "chain": "shufersal",
    "chain_name": "שופרסל",
    "subchain": "Be",
    "store_id": "601",
    "name": "BE פרדס חנה",
    "address": "רח' התחייה 7, פרדס חנה",
    "city": "פרדס חנה",
    "zipcode": "3701014",
    "lat": null,
    "lon": null
  },
  {
    "chain": "shufersal",
    "chain_name": "שופרסל",
    "subchain": "Be",
    "store_id": "26",
    "name": "BE בלוך גבעתיים",
    "address": "בלוך",
    "city": "גבעתיים",
    "zipcode": "",
    "lat": 32.07,
    "lon": 34.81
  },
  {
    "chain": "shufersal",
    "chain_name": "שופרסל",
    "subchain": "שופרסל שלי",
    "store_id": "19",
    "name": "שלי חיפה- זיו",
    "address": "כצנלסון/מנדל 67",
    "city": "חיפה",
    "zipcode": "3276617",
    "lat": 32.794,
    "lon": 34.9896
  },
  {
    "chain": "shufersal",
    "chain_name": "שופרסל",
    "subchain": "יש בשכונה",
    "store_id": "21",
    "name": "יש מרים ירושלים-  פארן",
    "address": "פארן 7 רמת אשכול",
    "city": "ירושלים",
    "zipcode": "9780209",
    "lat": 31.7683,
    "lon": 35.2137
  },
  {
    "chain": "shufersal",
    "chain_name": "שופרסל",
    "subchain": "שופרסל שלי",
    "store_id": "20",
    "name": "שלי רחובות- הרצל",
    "address": "הרצל 183",
    "city": "רחובות",
    "zipcode": "7626902",
    "lat": null,
    "lon": null
  },
  {
    "chain": "shufersal",
    "chain_name": "שופרסל",
    "subchain": "שופרסל שלי",
    "store_id": "23",
    "name": "שלי מיתר",
    "address": "מרכז מסחרי מיתר",
    "city": "מיתר",
    "zipcode": "8502500",
    "lat": null,
    "lon": null
  },
  {
    "chain": "shufersal",
    "chain_name": "שופרסל",
    "subchain": "שופרסל שלי",
    "store_id": "17",
    "name": "שלי חיפה- חורב",
    "address": "חורב 15",
    "city": "חיפה",
    "zipcode": "3434119",
    "lat": 32.794,
    "lon": 34.9896
  },
  {
    "chain": "shufersal",
    "chain_name": "שופרסל",
    "subchain": "שופרסל שלי",
    "store_id": "22",
    "name": "שלי נתניה- סמילנסקי",
    "address": "סמילנסקי 13",
    "city": "נתניה",
    "zipcode": "4243111",
    "lat": 32.3286,
    "lon": 34.8572
  },
  {
    "chain": "shufersal",
    "chain_name": "שופרסל",
    "subchain": "שופרסל דיל",
    "store_id": "18",
    "name": "דיל חולון-קרן היסוד",
    "address": "קרן היסוד 1 ק.שר",
    "city": "חולון",
    "zipcode": "5848930",
    "lat": 32.0158,
    "lon": 34.7789
  },
  {
    "chain": "shufersal",
    "chain_name": "שופרסל",
    "subchain": "שופרסל שלי",
    "store_id": "24",
    "name": "שלי אשדוד- הנביאים",
    "address": "הנביאים 3 רובע י",
    "city": "אשדוד",
    "zipcode": "7747303",
    "lat": 31.8044,
    "lon": 34.6553
  },
  {
    "chain": "shufersal",
    "chain_name": "שופרסל",
    "subchain": "יש בשכונה",
    "store_id": "15",
    "name": "יש פ\"ת- רוטשילד",
    "address": "רוטשילד 79",
    "city": "פתח-תקוה",
    "zipcode": "4947352",
    "lat": null,
    "lon": null
  },
  {
    "chain": "shufersal",
    "chain_name": "שופרסל",
    "subchain": "שופרסל שלי",
    "store_id": "28",
    "name": "שלי ת\"א- צה\"ל",
    "address": "צה\"ל 71, מרכ",
    "city": "תל אביב",
    "zipcode": "6935139",
    "lat": 32.0853,
    "lon": 34.7818
  },
  {
    "chain": "shufersal",
    "chain_name": "שופרסל",
    "subchain": "שופרסל שלי",
    "store_id": "27",
    "name": "שלי רעננה- אחוזה",
    "address": "אחוזה 82",
    "city": "רעננה",
    "zipcode": "4320945",
    "lat": 32.1836,
    "lon": 34.8708
  },
  {
    "chain": "shufersal",
    "chain_name": "שופרסל",
    "subchain": "שופרסל אקספרס",
    "store_id": "29",
    "name": "אקספרס האודם חריש",
    "address": "האודם",
    "city": "חריש",
    "zipcode": "0",
    "lat": null,
    "lon": null
  },
  {
    "chain": "shufersal",
    "chain_name": "שופרסל",
    "subchain": "שופרסל דיל",
    "store_id": "267",
    "name": "דיל קצרין- חרמון",
    "address": "חרמון 7 א ת.",
    "city": "קצרין",
    "zipcode": "1290000",
    "lat": null,
    "lon": null
  },
  {
    "chain": "shufersal",
    "chain_name": "שופרסל",
    "subchain": "שופרסל דיל",
    "store_id": "14",
    "name": "דיל ברנע אשקלון",
    "address": "שדרות ירושלים 122",
    "city": "אשקלון",
    "zipcode": "0",
    "lat": null,
    "lon": null
  },
  {
    "chain": "shufersal",
    "chain_name": "שופרסל",
    "subchain": "שופרסל שלי",
    "store_id": "40",
    "name": "שלי ב\"ש- עומר",
    "address": "רותם מרכ מסחרי ע",
    "city": "עומר",
    "zipcode": "8496500",
    "lat": null,
    "lon": null
  },
  {
    "chain": "shufersal",
    "chain_name": "שופרסל",
    "subchain": "שופרסל דיל",
    "store_id": "68",
    "name": "דיל כורדני",
    "address": "ירושלים 1",
    "city": "קריית מוצקין",
    "zipcode": "0",
    "lat": null,
    "lon": null
  },
  {
    "chain": "shufersal",
    "chain_name": "שופרסל",
    "subchain": "שופרסל דיל",
    "store_id": "113",
    "name": "דיל ראשל\"צ- גולדה מאיר",
    "address": "גולדה מאיר 1",
    "city": "ראשל\"צ",
    "zipcode": "7549050",
    "lat": null,
    "lon": null
  },
  {
    "chain": "shufersal",
    "chain_name": "שופרסל",
    "subchain": "יש חסד",
    "store_id": "609",
    "name": "יש חסד אלעד-ניסים גאון",
    "address": "ניסים גאון 79",
    "city": "אלעד",
    "zipcode": "",
    "lat": null,
    "lon": null
  },
  {
    "chain": "shufersal",
    "chain_name": "שופרסל",
    "subchain": "Be",
    "store_id": "298",
    "name": " BE אמות באר שבע",
    "address": "חייל הנדסה 1",
    "city": "באר שבע",
    "zipcode": "",
    "lat": 31.253,
    "lon": 34.7915
  },
  {
    "chain": "shufersal",
    "chain_name": "שופרסל",
    "subchain": "שופרסל אקספרס",
    "store_id": "79",
    "name": "אקספרס חריש",
    "address": "נחשול 30",
    "city": "חריש",
    "zipcode": "3786100",
    "lat": null,
    "lon": null
  },
  {
    "chain": "shufersal",
    "chain_name": "שופרסל",
    "subchain": "שופרסל אקספרס",
    "store_id": "147",
    "name": "אקספרס זכרון",
    "address": "ההנפה",
    "city": "זכרון יעקב",
    "zipcode": "",
    "lat": null,
    "lon": null
  },
  {
    "chain": "shufersal",
    "chain_name": "שופרסל",
    "subchain": "שופרסל שלי",
    "store_id": "228",
    "name": "שלי בנימינה - הגביע",
    "address": "הגביע 1",
    "city": "בנימינה",
    "zipcode": "3056601",
    "lat": null,
    "lon": null
  },
  {
    "chain": "shufersal",
    "chain_name": "שופרסל",
    "subchain": "Be",
    "store_id": "618",
    "name": "BE ראשון לציון",
    "address": "רוטשילד 49",
    "city": "ראשון לציון",
    "zipcode": "",
    "lat": 31.973,
    "lon": 34.7925
  },
  {
    "chain": "shufersal",
    "chain_name": "שופרסל",
    "subchain": "שופרסל דיל",
    "store_id": "123",
    "name": "דיל חולון- גולדה",
    "address": "גולדה מאיר7",
    "city": "חולון",
    "zipcode": "5839101",
    "lat": 32.0158,
    "lon": 34.7789
  },
  {
    "chain": "shufersal",
    "chain_name": "שופרסל",
    "subchain": "שופרסל אקספרס",
    "store_id": "169",
    "name": "אקספרס באר שבע",
    "address": "אפרים לרון 20",
    "city": "באר שבע",
    "zipcode": "",
    "lat": 31.253,
    "lon": 34.7915
  },
  {
    "chain": "shufersal",
    "chain_name": "שופרסל",
    "subchain": "יש בשכונה",
    "store_id": "306",
    "name": "יש נוה שאנן חיפה- חניתה",
    "address": "רח' חניתה 64",
    "city": "חיפה",
    "zipcode": "3244411",
    "lat": 32.794,
    "lon": 34.9896
  },
  {
    "chain": "shufersal",
    "chain_name": "שופרסל",
    "subchain": "Be",
    "store_id": "41",
    "name": "BE דיזנגוף סנטר",
    "address": "דיזנגוף 50",
    "city": "תל אביב",
    "zipcode": "",
    "lat": 32.0853,
    "lon": 34.7818
  },
  {
    "chain": "shufersal",
    "chain_name": "שופרסל",
    "subchain": "שופרסל אקספרס",
    "store_id": "56",
    "name": "אקספרס  חריש הרימון",
    "address": "האורן 47",
    "city": "חריש",
    "zipcode": "",
    "lat": null,
    "lon": null
  },
  {
    "chain": "shufersal",
    "chain_name": "שופרסל",
    "subchain": "יש בשכונה",
    "store_id": "78",
    "name": "יש הר נוף ירושלים-שאולזו",
    "address": "שאולזון 56",
    "city": "ירושלים",
    "zipcode": "9540057",
    "lat": 31.7683,
    "lon": 35.2137
  },
  {
    "chain": "shufersal",
    "chain_name": "שופרסל",
    "subchain": "שופרסל שלי",
    "store_id": "32",
    "name": "שלי רמת גן- קסם",
    "address": "הירדן 90",
    "city": "רמת-גן",
    "zipcode": "5224701",
    "lat": null,
    "lon": null
  },
  {
    "chain": "shufersal",
    "chain_name": "שופרסל",
    "subchain": "שופרסל שלי",
    "store_id": "43",
    "name": "שלי הוד השרון- הבנים",
    "address": "הבנים 12",
    "city": "הוד השרון",
    "zipcode": "4526814",
    "lat": 32.15,
    "lon": 34.8917
  },
  {
    "chain": "shufersal",
    "chain_name": "שופרסל",
    "subchain": "שופרסל דיל",
    "store_id": "65",
    "name": "דיל ב\"ש- צ'ורלי",
    "address": "אורגים פינתב.ג",
    "city": "באר-שבע",
    "zipcode": "84105",
    "lat": null,
    "lon": null
  },
  {
    "chain": "shufersal",
    "chain_name": "שופרסל",
    "subchain": "שופרסל דיל",
    "store_id": "76",
    "name": "דיל אריאל",
    "address": "רח' מוריה",
    "city": "אריאל",
    "zipcode": "",
    "lat": null,
    "lon": null
  },
  {
    "chain": "shufersal",
    "chain_name": "שופרסל",
    "subchain": "שופרסל דיל",
    "store_id": "89",
    "name": "דיל עזריאלי - רמלה",
    "address": "שמשון הגיבור 32",
    "city": "רמלה",
    "zipcode": "72500",
    "lat": null,
    "lon": null
  },
  {
    "chain": "shufersal",
    "chain_name": "שופרסל",
    "subchain": "שופרסל שלי",
    "store_id": "117",
    "name": "שלי תל אביב-איכילוב",
    "address": "ויצמן 6",
    "city": "ת\"א",
    "zipcode": "6423914",
    "lat": null,
    "lon": null
  },
  {
    "chain": "shufersal",
    "chain_name": "שופרסל",
    "subchain": "Be",
    "store_id": "681",
    "name": "BE שהם",
    "address": "הדקל 30 מתחם שוהם מרקט",
    "city": "שוהם",
    "zipcode": "",
    "lat": null,
    "lon": null
  },
  {
    "chain": "shufersal",
    "chain_name": "שופרסל",
    "subchain": "שופרסל שלי",
    "store_id": "30",
    "name": "שלי רמת גן- קריניצי",
    "address": "יוסף ספיר 9",
    "city": "רמת גן",
    "zipcode": "5262209",
    "lat": 32.0833,
    "lon": 34.8147
  },
  {
    "chain": "shufersal",
    "chain_name": "שופרסל",
    "subchain": "שופרסל שלי",
    "store_id": "39",
    "name": "שלי ת\"א- ברזיל",
    "address": "ברזיל 15",
    "city": "רמת אביב א",
    "zipcode": "6946025",
    "lat": null,
    "lon": null
  },
  {
    "chain": "shufersal",
    "chain_name": "שופרסל",
    "subchain": "שופרסל דיל",
    "store_id": "77",
    "name": "דיל  חריש",
    "address": "דרך ארץ",
    "city": "חריש",
    "zipcode": "",
    "lat": null,
    "lon": null
  },
  {
    "chain": "shufersal",
    "chain_name": "שופרסל",
    "subchain": "שופרסל אקספרס",
    "store_id": "84",
    "name": "אקספרס בית חשמונאי",
    "address": "אקספרס בית חשמונאי",
    "city": "בית חשמונאי",
    "zipcode": "",
    "lat": null,
    "lon": null
  },
  {
    "chain": "shufersal",
    "chain_name": "שופרסל",
    "subchain": "יש חסד",
    "store_id": "349",
    "name": "יש חסד צפת- כנען",
    "address": "הר כנען",
    "city": "צפת",
    "zipcode": "13200",
    "lat": null,
    "lon": null
  },
  {
    "chain": "shufersal",
    "chain_name": "שופרסל",
    "subchain": "Be",
    "store_id": "145",
    "name": "BE נתיבות",
    "address": "",
    "city": "",
    "zipcode": "",
    "lat": null,
    "lon": null
  },
  {
    "chain": "shufersal",
    "chain_name": "שופרסל",
    "subchain": "שופרסל דיל",
    "store_id": "163",
    "name": "דיל שדרות- הפלדה",
    "address": "הפלדה קניון אחים",
    "city": "שדרות",
    "zipcode": "80100",
    "lat": null,
    "lon": null
  },
  {
    "chain": "shufersal",
    "chain_name": "שופרסל",
    "subchain": "שופרסל דיל",
    "store_id": "188",
    "name": "דיל ירוחם- צבי בורנשטיין",
    "address": "צבי בורנשטין",
    "city": "ירוחם",
    "zipcode": "8050000",
    "lat": null,
    "lon": null
  },
  {
    "chain": "shufersal",
    "chain_name": "שופרסל",
    "subchain": "שופרסל דיל",
    "store_id": "245",
    "name": "דיל ירושלים- פסגת זאב",
    "address": "שד' משה דין 106",
    "city": "ירושלים",
    "zipcode": "9783701",
    "lat": 31.7683,
    "lon": 35.2137
  },
  {
    "chain": "shufersal",
    "chain_name": "שופרסל",
    "subchain": "שופרסל דיל",
    "store_id": "205",
    "name": "דיל יהוד- אלטלף",
    "address": "אלטלף 4 א.ת יהוד",
    "city": "יהוד",
    "zipcode": "5621604",
    "lat": null,
    "lon": null
  },
  {
    "chain": "shufersal",
    "chain_name": "שופרסל",
    "subchain": "שופרסל דיל",
    "store_id": "208",
    "name": "דיל אילת נחל אורה",
    "address": "ירושלים השלמה 52",
    "city": "אילת",
    "zipcode": "",
    "lat": null,
    "lon": null
  },
  {
    "chain": "shufersal",
    "chain_name": "שופרסל",
    "subchain": "שופרסל אקספרס",
    "store_id": "334",
    "name": "אקספרס פ\"ת - שפירא",
    "address": "קק\"ל 35",
    "city": "פתח תקווה",
    "zipcode": "",
    "lat": 32.0841,
    "lon": 34.8878
  },
  {
    "chain": "shufersal",
    "chain_name": "שופרסל",
    "subchain": "שופרסל אקספרס",
    "store_id": "368",
    "name": "אקספרס-נשר מרגנית",
    "address": "נשר המרגנית 1",
    "city": "חיפה",
    "zipcode": "",
    "lat": 32.794,
    "lon": 34.9896
  },
  {
    "chain": "shufersal",
    "chain_name": "שופרסל",
    "subchain": "Be",
    "store_id": "664",
    "name": "BE בית חולים שערי צדק ירושלים",
    "address": "שעריצדק י-ם",
    "city": "ירושלים",
    "zipcode": "",
    "lat": 31.7683,
    "lon": 35.2137
  },
  {
    "chain": "shufersal",
    "chain_name": "שופרסל",
    "subchain": "Be",
    "store_id": "696",
    "name": "BE מדיקל-אלעד",
    "address": "אלעד",
    "city": "אלעד",
    "zipcode": "",
    "lat": null,
    "lon": null
  },
  {
    "chain": "shufersal",
    "chain_name": "שופרסל",
    "subchain": "Be",
    "store_id": "784",
    "name": "BE כפר גנים",
    "address": "מרכז מסחרי כפר גנים",
    "city": "פתח תקווה",
    "zipcode": "",
    "lat": 32.0841,
    "lon": 34.8878
  },
  {
    "chain": "shufersal",
    "chain_name": "שופרסל",
    "subchain": "שופרסל שלי",
    "store_id": "34",
    "name": "שלי רמת השרון- סוקולוב",
    "address": "סוקולוב 48",
    "city": "רמת-השרון",
    "zipcode": "4723514",
    "lat": null,
    "lon": null
  },
  {
    "chain": "shufersal",
    "chain_name": "שופרסל",
    "subchain": "שופרסל שלי",
    "store_id": "38",
    "name": "שלי חיפה- דניה",
    "address": "ליבריה 2 דניה",
    "city": "חיפה",
    "zipcode": "3491370",
    "lat": 32.794,
    "lon": 34.9896
  },
  {
    "chain": "shufersal",
    "chain_name": "שופרסל",
    "subchain": "שופרסל דיל",
    "store_id": "49",
    "name": "דיל ב\"ש- הר בוקר",
    "address": "הר בוקר  17",
    "city": "באר שבע",
    "zipcode": "8489819",
    "lat": 31.253,
    "lon": 34.7915
  },
  {
    "chain": "shufersal",
    "chain_name": "שופרסל",
    "subchain": "שופרסל שלי",
    "store_id": "70",
    "name": "שלי רמת גן- מרום נווה",
    "address": "תרצה 19 ר\"ג",
    "city": "רמת-גן",
    "zipcode": "5236431",
    "lat": null,
    "lon": null
  },
  {
    "chain": "shufersal",
    "chain_name": "שופרסל",
    "subchain": "יש חסד",
    "store_id": "81",
    "name": "יש חסד מודיעין עלית דרום",
    "address": "שערי תשובה3",
    "city": "מודיעין עילית",
    "zipcode": "",
    "lat": null,
    "lon": null
  },
  {
    "chain": "shufersal",
    "chain_name": "שופרסל",
    "subchain": "שופרסל שלי",
    "store_id": "93",
    "name": "שלי יהוד- סביונים",
    "address": "דרך משה דיין 7",
    "city": "יהוד",
    "zipcode": "5645001",
    "lat": null,
    "lon": null
  },
  {
    "chain": "shufersal",
    "chain_name": "שופרסל",
    "subchain": "שופרסל דיל אקסטרא",
    "store_id": "129",
    "name": "דיל אקסטרה נתניה- המלאכה",
    "address": "רח' המלאכה 32",
    "city": "נתניה",
    "zipcode": "4250567",
    "lat": 32.3286,
    "lon": 34.8572
  },
  {
    "chain": "shufersal",
    "chain_name": "שופרסל",
    "subchain": "יש חסד",
    "store_id": "133",
    "name": "יש חסד ביתר עילית-  הר\"ן",
    "address": "הר\"ן 6 פינת פנים המאירים",
    "city": "ביתר עילית",
    "zipcode": "9056506",
    "lat": null,
    "lon": null
  },
  {
    "chain": "shufersal",
    "chain_name": "שופרסל",
    "subchain": "שופרסל דיל",
    "store_id": "144",
    "name": "דיל שבירו כפר סבא",
    "address": "רפפורט 6",
    "city": "כפר סבא",
    "zipcode": "",
    "lat": 32.178,
    "lon": 34.9065
  },
  {
    "chain": "shufersal",
    "chain_name": "שופרסל",
    "subchain": "שופרסל אקספרס",
    "store_id": "150",
    "name": "אקספרס רודנסקי ת\"א",
    "address": "רודנסקי 5",
    "city": "תל אביב",
    "zipcode": "",
    "lat": 32.0853,
    "lon": 34.7818
  },
  {
    "chain": "shufersal",
    "chain_name": "שופרסל",
    "subchain": "שופרסל דיל",
    "store_id": "155",
    "name": "דיל צור יגאל- מרכז מסחרי",
    "address": "מרכז מסחרי",
    "city": "צור יגאל",
    "zipcode": "4486400",
    "lat": null,
    "lon": null
  },
  {
    "chain": "shufersal",
    "chain_name": "שופרסל",
    "subchain": "שופרסל שלי",
    "store_id": "164",
    "name": "שלי רמת גן- ביאליק",
    "address": "רח. ביאליק 76",
    "city": "רמת גן",
    "zipcode": "5244136",
    "lat": 32.0833,
    "lon": 34.8147
  },
  {
    "chain": "shufersal",
    "chain_name": "שופרסל",
    "subchain": "שופרסל דיל",
    "store_id": "227",
    "name": "דיל-איקאה קרית אתא",
    "address": "דרך חיפה 52",
    "city": "קרית אתא",
    "zipcode": "",
    "lat": null,
    "lon": null
  },
  {
    "chain": "shufersal",
    "chain_name": "שופרסל",
    "subchain": "שופרסל דיל",
    "store_id": "238",
    "name": "דיל באר יעקב",
    "address": "רח' שא - נס 17",
    "city": " באר יעקב",
    "zipcode": "",
    "lat": null,
    "lon": null
  },
  {
    "chain": "shufersal",
    "chain_name": "שופרסל",
    "subchain": "שופרסל דיל",
    "store_id": "240",
    "name": "דיל רהט",
    "address": "מרכז מסחרי רהט",
    "city": "רהט",
    "zipcode": "8535700",
    "lat": null,
    "lon": null
  },
  {
    "chain": "shufersal",
    "chain_name": "שופרסל",
    "subchain": "שופרסל אקספרס",
    "store_id": "303",
    "name": "אקספרס טבעון - יהודה הנשיא",
    "address": "יהודה הנשיא",
    "city": "קרית טבעון",
    "zipcode": "3604701",
    "lat": null,
    "lon": null
  },
  {
    "chain": "shufersal",
    "chain_name": "שופרסל",
    "subchain": "שופרסל אקספרס",
    "store_id": "354",
    "name": "'אקספרס ת\"א- קינג ג'ורג",
    "address": "קינג ג'ורג' 58",
    "city": "תל אביב",
    "zipcode": "",
    "lat": 32.0853,
    "lon": 34.7818
  },
  {
    "chain": "shufersal",
    "chain_name": "שופרסל",
    "subchain": "שופרסל שלי",
    "store_id": "371",
    "name": "שלי ברניצקי",
    "address": "נתן ברניצקי 13",
    "city": "ראשון לציון",
    "zipcode": "",
    "lat": 31.973,
    "lon": 34.7925
  },
  {
    "chain": "shufersal",
    "chain_name": "שופרסל",
    "subchain": "יש חסד",
    "store_id": "496",
    "name": "יש חסד כנפי נשרים",
    "address": "כנפי נשרים 24",
    "city": "ירושלים",
    "zipcode": "",
    "lat": 31.7683,
    "lon": 35.2137
  },
  {
    "chain": "shufersal",
    "chain_name": "שופרסל",
    "subchain": "יש חסד",
    "store_id": "611",
    "name": "יש חסד בני ברק-השומר",
    "address": "השומר 10",
    "city": "בני ברק",
    "zipcode": "5137705",
    "lat": 32.0833,
    "lon": 34.8333
  },
  {
    "chain": "shufersal",
    "chain_name": "שופרסל",
    "subchain": "Be",
    "store_id": "659",
    "name": "BE  הדר",
    "address": "הדר חיפה",
    "city": "חיפה",
    "zipcode": "",
    "lat": 32.794,
    "lon": 34.9896
  },
  {
    "chain": "shufersal",
    "chain_name": "שופרסל",
    "subchain": "שופרסל שלי",
    "store_id": "193",
    "name": "שלי ראשל\"צ- מזרח",
    "address": "שד' יעקב 50",
    "city": "ראשון לציון",
    "zipcode": "7550903",
    "lat": 31.973,
    "lon": 34.7925
  },
  {
    "chain": "shufersal",
    "chain_name": "שופרסל",
    "subchain": "יש בשכונה",
    "store_id": "207",
    "name": "יש אור יהודה - אליהו סעדו",
    "address": "אליהו סעדון 128",
    "city": "אור יהודה",
    "zipcode": "6039727",
    "lat": null,
    "lon": null
  },
  {
    "chain": "shufersal",
    "chain_name": "שופרסל",
    "subchain": "שופרסל אקספרס",
    "store_id": "265",
    "name": "אקספרס חולון - זלמן ארן",
    "address": "זלמן ארן 1",
    "city": "חולון",
    "zipcode": "",
    "lat": 32.0158,
    "lon": 34.7789
  },
  {
    "chain": "shufersal",
    "chain_name": "שופרסל",
    "subchain": "שופרסל שלי",
    "store_id": "308",
    "name": "שלי קרית אתא- איינשטין",
    "address": "איינשטיין 20",
    "city": "קרית אתא",
    "zipcode": "2805152",
    "lat": null,
    "lon": null
  },
  {
    "chain": "shufersal",
    "chain_name": "שופרסל",
    "subchain": "שופרסלשלי",
    "store_id": "366",
    "name": "שלי כפר ורדים- מרכז מסחר",
    "address": "מרכז מסחרי כפר ו",
    "city": "כפר ורדים",
    "zipcode": "2451700",
    "lat": null,
    "lon": null
  },
  {
    "chain": "shufersal",
    "chain_name": "שופרסל",
    "subchain": "שופרסל אקספרס",
    "store_id": "384",
    "name": "אקספרס קרית ביאליק",
    "address": "שדרות ירושלים 15",
    "city": "קרית ביאליק",
    "zipcode": "",
    "lat": null,
    "lon": null
  },
  {
    "chain": "shufersal",
    "chain_name": "שופרסל",
    "subchain": "Be",
    "store_id": "392",
    "name": "BE שילת",
    "address": "הזית פינת גלבוע",
    "city": "שילת",
    "zipcode": "",
    "lat": null,
    "lon": null
  },
  {
    "chain": "shufersal",
    "chain_name": "שופרסל",
    "subchain": "Be",
    "store_id": "617",
    "name": "BE נצרת",
    "address": "דרך החטיבות4",
    "city": "נצרת",
    "zipcode": "",
    "lat": null,
    "lon": null
  },
  {
    "chain": "shufersal",
    "chain_name": "שופרסל",
    "subchain": "Be",
    "store_id": "645",
    "name": "BE גבעת שמואל",
    "address": "ניו פארם גבעת שמואל",
    "city": "גבעת שמואל",
    "zipcode": "",
    "lat": null,
    "lon": null
  },
  {
    "chain": "shufersal",
    "chain_name": "שופרסל",
    "subchain": "שופרסל דיל",
    "store_id": "114",
    "name": "דיל ירושלים- גילה",
    "address": "צביה ויצחק 17",
    "city": "ירושלים",
    "zipcode": "9384014",
    "lat": 31.7683,
    "lon": 35.2137
  },
  {
    "chain": "shufersal",
    "chain_name": "שופרסל",
    "subchain": "שופרסל דיל",
    "store_id": "119",
    "name": "דיל מודיעין- סנטר",
    "address": "צאלון   21",
    "city": "מודיעין",
    "zipcode": "",
    "lat": null,
    "lon": null
  },
  {
    "chain": "shufersal",
    "chain_name": "שופרסל",
    "subchain": "שופרסל דיל",
    "store_id": "173",
    "name": "דיל כפר יונה",
    "address": "נעמי שמר",
    "city": "כפר יונה",
    "zipcode": "",
    "lat": null,
    "lon": null
  },
  {
    "chain": "shufersal",
    "chain_name": "שופרסל",
    "subchain": "שופרסל דיל",
    "store_id": "187",
    "name": "דיל קניון מעלה אדומים",
    "address": "דרך קדם 5",
    "city": "מעלה אדומים",
    "zipcode": "",
    "lat": null,
    "lon": null
  },
  {
    "chain": "shufersal",
    "chain_name": "שופרסל",
    "subchain": "Be",
    "store_id": "201",
    "name": "BE בריגה",
    "address": "שושנה דמארי 10",
    "city": "נתניה",
    "zipcode": "",
    "lat": 32.3286,
    "lon": 34.8572
  },
  {
    "chain": "shufersal",
    "chain_name": "שופרסל",
    "subchain": "שופרסל דיל",
    "store_id": "226",
    "name": "דיל כרמיאל",
    "address": "ההגנה 2",
    "city": "כרמיאל",
    "zipcode": "",
    "lat": null,
    "lon": null
  },
  {
    "chain": "shufersal",
    "chain_name": "שופרסל",
    "subchain": "שופרסל דיל",
    "store_id": "281",
    "name": "דיל מגדל העמק- המדע",
    "address": "שד' מדע 77",
    "city": "מגדל העמק",
    "zipcode": "",
    "lat": null,
    "lon": null
  },
  {
    "chain": "shufersal",
    "chain_name": "שופרסל",
    "subchain": "יש חסד",
    "store_id": "295",
    "name": "יש חסד בני ברק-שלמה המלך",
    "address": "שלמה המלך   12",
    "city": "בני ברק",
    "zipcode": "5155205",
    "lat": 32.0833,
    "lon": 34.8333
  },
  {
    "chain": "shufersal",
    "chain_name": "שופרסל",
    "subchain": "",
    "store_id": "773",
    "name": "GOOD MARKET אהבת שלום בית שמש",
    "address": "אהבת שלום 9",
    "city": "בית שמש",
    "zipcode": "",
    "lat": null,
    "lon": null
  },
  {
    "chain": "shufersal",
    "chain_name": "שופרסל",
    "subchain": "שופרסל שלי",
    "store_id": "42",
    "name": "שלי ירושלים- ניות",
    "address": "בורלא 1 שכ.ניות",
    "city": "ירושלים",
    "zipcode": "9371401",
    "lat": 31.7683,
    "lon": 35.2137
  },
  {
    "chain": "shufersal",
    "chain_name": "שופרסל",
    "subchain": "שופרסל שלי",
    "store_id": "57",
    "name": "שלי רמת השרון- אוסישקין",
    "address": "אוסישקין 5",
    "city": "רמת השרון",
    "zipcode": "4721005",
    "lat": null,
    "lon": null
  },
  {
    "chain": "shufersal",
    "chain_name": "שופרסל",
    "subchain": "שופרסל שלי",
    "store_id": "80",
    "name": "שלי ראשל\"צ- נווה הדרים",
    "address": "ברנשטיין 2",
    "city": "ראשון לציון",
    "zipcode": "7550302",
    "lat": 31.973,
    "lon": 34.7925
  },
  {
    "chain": "shufersal",
    "chain_name": "שופרסל",
    "subchain": "שופרסל דיל",
    "store_id": "92",
    "name": "דיל אשדוד- שבט לוי",
    "address": "שבט לוי 12",
    "city": "אשדוד",
    "zipcode": "",
    "lat": 31.8044,
    "lon": 34.6553
  },
  {
    "chain": "shufersal",
    "chain_name": "שופרסל",
    "subchain": "שופרסל דיל",
    "store_id": "95",
    "name": "דיל חדרה- קניון אורות",
    "address": "1ניון אורות",
    "city": "אור עקיבא",
    "zipcode": "3060000",
    "lat": null,
    "lon": null
  },
  {
    "chain": "shufersal",
    "chain_name": "שופרסל",
    "subchain": "שופרסל שלי",
    "store_id": "101",
    "name": "שליהוד השרון- ק מרגלית",
    "address": "נחליאלי 2",
    "city": "הוד השרון",
    "zipcode": "4535502",
    "lat": 32.15,
    "lon": 34.8917
  },
  {
    "chain": "shufersal",
    "chain_name": "שופרסל",
    "subchain": "שופרסל שלי",
    "store_id": "302",
    "name": "שלי חיפה- קלר",
    "address": "קלר 7",
    "city": "חיפה",
    "zipcode": "3448314",
    "lat": 32.794,
    "lon": 34.9896
  },
  {
    "chain": "shufersal",
    "chain_name": "שופרסל",
    "subchain": "שופרסל אקספרס",
    "store_id": "305",
    "name": "אקספרס ת\"א- יהודההמכבי",
    "address": "יהודה מכבי 81",
    "city": "תל אביב-יפו",
    "zipcode": "",
    "lat": null,
    "lon": null
  },
  {
    "chain": "shufersal",
    "chain_name": "שופרסל",
    "subchain": "שופרסל אקספרס",
    "store_id": "341",
    "name": "אקספרס רמת גן- הרוא\"ה",
    "address": "הרוא\"ה 131",
    "city": "רמת גן",
    "zipcode": "",
    "lat": 32.0833,
    "lon": 34.8147
  },
  {
    "chain": "shufersal",
    "chain_name": "שופרסל",
    "subchain": "שופרסל אקספרס",
    "store_id": "347",
    "name": "אקספרס גדרה- דרך הפרחים",
    "address": "דרך הפרחים 38",
    "city": "גדרה",
    "zipcode": "",
    "lat": null,
    "lon": null
  },
  {
    "chain": "shufersal",
    "chain_name": "שופרסל",
    "subchain": "שופרסל אקספרס",
    "store_id": "385",
    "name": "אקספרס מאיר יערי תל אביב",
    "address": "מאיר יערי 19",
    "city": "תל אביב",
    "zipcode": "",
    "lat": 32.0853,
    "lon": 34.7818
  },
  {
    "chain": "shufersal",
    "chain_name": "שופרסל",
    "subchain": "Be",
    "store_id": "631",
    "name": "סניף וולפסון",
    "address": "הלוחמים 62",
    "city": "חולון",
    "zipcode": "",
    "lat": 32.0158,
    "lon": 34.7789
  },
  {
    "chain": "shufersal",
    "chain_name": "שופרסל",
    "subchain": "Be",
    "store_id": "651",
    "name": "BE דרורים",
    "address": "קניון דרורים , בני דרור",
    "city": "בני דרור",
    "zipcode": "",
    "lat": null,
    "lon": null
  },
  {
    "chain": "shufersal",
    "chain_name": "שופרסל",
    "subchain": "Be",
    "store_id": "437",
    "name": "BE אייס מול אילת",
    "address": "קאמפן 8",
    "city": "אילת",
    "zipcode": "",
    "lat": null,
    "lon": null
  },
  {
    "chain": "shufersal",
    "chain_name": "שופרסל",
    "subchain": "שופרסל דיל",
    "store_id": "229",
    "name": "דיל ת\"א- יגאל אלון",
    "address": "יגאל אלון 76",
    "city": "תל אביב",
    "zipcode": "6706701",
    "lat": 32.0853,
    "lon": 34.7818
  },
  {
    "chain": "shufersal",
    "chain_name": "שופרסל",
    "subchain": "שופרסל שלי",
    "store_id": "230",
    "name": "שלי כ\"ס- ויצמן",
    "address": "ויצמן 29",
    "city": "כפר סבא",
    "zipcode": "4435227",
    "lat": 32.178,
    "lon": 34.9065
  },
  {
    "chain": "shufersal",
    "chain_name": "שופרסל",
    "subchain": "שופרסל דיל",
    "store_id": "244",
    "name": "דיל גלילות רמת השרון",
    "address": "צומת גלילות",
    "city": "רמת השרון",
    "zipcode": "47100",
    "lat": null,
    "lon": null
  },
  {
    "chain": "shufersal",
    "chain_name": "שופרסל",
    "subchain": "Be",
    "store_id": "252",
    "name": "BE עין שמר",
    "address": "",
    "city": "עין שמר",
    "zipcode": "",
    "lat": null,
    "lon": null
  },
  {
    "chain": "shufersal",
    "chain_name": "שופרסל",
    "subchain": "שופרסל שלי",
    "store_id": "262",
    "name": "שלי מזכרת בתיה- בגין",
    "address": "שד' מנחם בגין 2",
    "city": "מזכרת בתיה",
    "zipcode": "7680400",
    "lat": null,
    "lon": null
  },
  {
    "chain": "shufersal",
    "chain_name": "שופרסל",
    "subchain": "שופרסל שלי",
    "store_id": "271",
    "name": "שלי רחובות- יעקובי",
    "address": "פנחס יעקובי 1",
    "city": "רחובות",
    "zipcode": "",
    "lat": null,
    "lon": null
  },
  {
    "chain": "shufersal",
    "chain_name": "שופרסל",
    "subchain": "שופרסל שלי",
    "store_id": "278",
    "name": "שלי פ\"ת -העצמאות",
    "address": "העצמאות 65",
    "city": "פתח תקוה",
    "zipcode": "4937999",
    "lat": null,
    "lon": null
  },
  {
    "chain": "shufersal",
    "chain_name": "שופרסל",
    "subchain": "שופרסל שלי",
    "store_id": "326",
    "name": "שלי נהריה- הגעתון",
    "address": "רח.הרצל-שד.הגעתו",
    "city": "נהריה",
    "zipcode": "2240029",
    "lat": null,
    "lon": null
  },
  {
    "chain": "shufersal",
    "chain_name": "שופרסל",
    "subchain": "שופרסל שלי",
    "store_id": "343",
    "name": "שלי ראש העין- ברקן",
    "address": "בזק 1 פינת ברקן",
    "city": "ראש העין",
    "zipcode": "4863016",
    "lat": null,
    "lon": null
  },
  {
    "chain": "shufersal",
    "chain_name": "שופרסל",
    "subchain": "שופרסל דיל",
    "store_id": "248",
    "name": "דיל ב\"ש- נווה מנחם",
    "address": "החשמונאים 15",
    "city": "באר שבע",
    "zipcode": "8452015",
    "lat": 31.253,
    "lon": 34.7915
  },
  {
    "chain": "shufersal",
    "chain_name": "שופרסל",
    "subchain": "Be",
    "store_id": "672",
    "name": "סניף אשדוד סיטי",
    "address": "מנחם בגין פינת שדרות הרצל",
    "city": "אשדוד",
    "zipcode": "",
    "lat": 31.8044,
    "lon": 34.6553
  },
  {
    "chain": "shufersal",
    "chain_name": "שופרסל",
    "subchain": "שופרסל שלי",
    "store_id": "374",
    "name": "שלי הרצליה- הבנים",
    "address": "הבנים 46",
    "city": "הרצליה",
    "zipcode": "4637948",
    "lat": 32.1656,
    "lon": 34.8467
  },
  {
    "chain": "shufersal",
    "chain_name": "שופרסל",
    "subchain": "שופרסל אקספרס",
    "store_id": "380",
    "name": "אקספרס ת\"א- מרמורק",
    "address": "מרמורק 10",
    "city": "תל אביב-יפו",
    "zipcode": "",
    "lat": null,
    "lon": null
  },
  {
    "chain": "shufersal",
    "chain_name": "שופרסל",
    "subchain": "Be",
    "store_id": "621",
    "name": "BE סינמה סיטי נתניה",
    "address": "מתחם סינמה סיטי , רחוב המחקר",
    "city": "נתניה",
    "zipcode": "",
    "lat": 32.3286,
    "lon": 34.8572
  },
  {
    "chain": "shufersal",
    "chain_name": "שופרסל",
    "subchain": "Be",
    "store_id": "649",
    "name": "BE עכו",
    "address": "עכו",
    "city": "עכו",
    "zipcode": "",
    "lat": null,
    "lon": null
  },
  {
    "chain": "shufersal",
    "chain_name": "שופרסל",
    "subchain": "Be",
    "store_id": "656",
    "name": "סניף בן יהודה",
    "address": "בן יהודה 75",
    "city": "תל אביב",
    "zipcode": "",
    "lat": 32.0853,
    "lon": 34.7818
  },
  {
    "chain": "shufersal",
    "chain_name": "שופרסל",
    "subchain": "Be",
    "store_id": "677",
    "name": "BE הרצליה",
    "address": "בן גוריון 19",
    "city": "הרצליה",
    "zipcode": "",
    "lat": 32.1656,
    "lon": 34.8467
  },
  {
    "chain": "shufersal",
    "chain_name": "שופרסל",
    "subchain": "Be",
    "store_id": "679",
    "name": "BE כרכור מדיקל",
    "address": "הגליל 17",
    "city": "כרכור",
    "zipcode": "",
    "lat": null,
    "lon": null
  },
  {
    "chain": "shufersal",
    "chain_name": "שופרסל",
    "subchain": "Be",
    "store_id": "688",
    "name": "BE  מדיקל-בלינסון פ\"ת",
    "address": "בלינסון פ\"ת",
    "city": "פתח תקווה",
    "zipcode": "",
    "lat": 32.0841,
    "lon": 34.8878
  },
  {
    "chain": "shufersal",
    "chain_name": "שופרסל",
    "subchain": "Be",
    "store_id": "695",
    "name": "BE  אסותא רמת החייל",
    "address": "אסותא רמת החייל",
    "city": "תל אביב",
    "zipcode": "",
    "lat": 32.0853,
    "lon": 34.7818
  },
  {
    "chain": "shufersal",
    "chain_name": "שופרסל",
    "subchain": "Be",
    "store_id": "782",
    "name": "BE ראשון לציון",
    "address": "לחי 2",
    "city": "ראשון לציון",
    "zipcode": "",
    "lat": 31.973,
    "lon": 34.7925
  },
  {
    "chain": "shufersal",
    "chain_name": "שופרסל",
    "subchain": "שופרסל שלי",
    "store_id": "50",
    "name": "שלי מבשרת ציון",
    "address": "שלום 75 שכונה ג",
    "city": "מבשרת ציון",
    "zipcode": "9071425",
    "lat": null,
    "lon": null
  },
  {
    "chain": "shufersal",
    "chain_name": "שופרסל",
    "subchain": "שופרסל שלי",
    "store_id": "69",
    "name": "שלי ת\"א- רמת אביב ב",
    "address": "טאגור 38",
    "city": "תל אביב",
    "zipcode": "6920340",
    "lat": 32.0853,
    "lon": 34.7818
  },
  {
    "chain": "shufersal",
    "chain_name": "שופרסל",
    "subchain": "שופרסל אקספרס",
    "store_id": "82",
    "name": "אקספרס חולון",
    "address": "שמריהו לוין 2",
    "city": "חולון",
    "zipcode": "",
    "lat": 32.0158,
    "lon": 34.7789
  },
  {
    "chain": "shufersal",
    "chain_name": "שופרסל",
    "subchain": "שופרסל דיל",
    "store_id": "96",
    "name": "דיל חדרה- הפרדס",
    "address": "קניון גני הדרים",
    "city": "חדרה",
    "zipcode": "3849207",
    "lat": null,
    "lon": null
  },
  {
    "chain": "shufersal",
    "chain_name": "שופרסל",
    "subchain": "שופרסל דיל",
    "store_id": "97",
    "name": "דיל קרית שמונה- מתחם ביג",
    "address": "מתחם ביג",
    "city": "קרית שמונה",
    "zipcode": "1162401",
    "lat": null,
    "lon": null
  },
  {
    "chain": "shufersal",
    "chain_name": "שופרסל",
    "subchain": "שופרסל שלי",
    "store_id": "103",
    "name": "שלי שוהם- מרכז מסחרי",
    "address": "מרכז מסחרי",
    "city": "שוהם",
    "zipcode": "6083530",
    "lat": null,
    "lon": null
  },
  {
    "chain": "shufersal",
    "chain_name": "שופרסל",
    "subchain": "שופרסל שלי",
    "store_id": "116",
    "name": "שלי גבעתיים- מכתש",
    "address": "בורוכוב 54",
    "city": "גבעתיים",
    "zipcode": "5322205",
    "lat": 32.07,
    "lon": 34.81
  },
  {
    "chain": "shufersal",
    "chain_name": "שופרסל",
    "subchain": "שופרסל דיל",
    "store_id": "118",
    "name": "דיל אילת  הסתת",
    "address": "הסתת 15 א תעשיה",
    "city": "אילת",
    "zipcode": "8850415",
    "lat": null,
    "lon": null
  },
  {
    "chain": "shufersal",
    "chain_name": "שופרסל",
    "subchain": "שופרסל אקספרס",
    "store_id": "131",
    "name": "אקספרס הוד השרון",
    "address": "סוקולוב 37",
    "city": "הוד השרון",
    "zipcode": "",
    "lat": 32.15,
    "lon": 34.8917
  },
  {
    "chain": "shufersal",
    "chain_name": "שופרסל",
    "subchain": "שופרסל דיל",
    "store_id": "153",
    "name": "דיל אופקים- ז'בוטינסקי",
    "address": "זבוטינסקי 25",
    "city": "אופקים",
    "zipcode": "8759908",
    "lat": null,
    "lon": null
  },
  {
    "chain": "shufersal",
    "chain_name": "שופרסל",
    "subchain": "שופרסל דיל",
    "store_id": "184",
    "name": "דיל ראשל\"צ- זבוטינסקי",
    "address": "זבוטינסקי 16",
    "city": "ראשון לציון",
    "zipcode": "",
    "lat": 31.973,
    "lon": 34.7925
  },
  {
    "chain": "shufersal",
    "chain_name": "שופרסל",
    "subchain": "Be",
    "store_id": "673",
    "name": "BE 59 פנורמה חיפה",
    "address": "פנורמה חיפה",
    "city": "חיפה",
    "zipcode": "",
    "lat": 32.794,
    "lon": 34.9896
  },
  {
    "chain": "shufersal",
    "chain_name": "שופרסל",
    "subchain": "Be",
    "store_id": "685",
    "name": "BE  אזורי חן",
    "address": "אליהו ברלין 13",
    "city": "תל אביב",
    "zipcode": "",
    "lat": 32.0853,
    "lon": 34.7818
  },
  {
    "chain": "shufersal",
    "chain_name": "שופרסל",
    "subchain": "Be",
    "store_id": "698",
    "name": "BE כרמיאל",
    "address": "קניון חוצות כרמיאל",
    "city": "כרמיאל",
    "zipcode": "",
    "lat": null,
    "lon": null
  },
  {
    "chain": "shufersal",
    "chain_name": "שופרסל",
    "subchain": "",
    "store_id": "778",
    "name": "GOOD MARKET אהליאב ירושלים",
    "address": "אהליאב 21",
    "city": "ירושלים",
    "zipcode": "2420531",
    "lat": 31.7683,
    "lon": 35.2137
  },
  {
    "chain": "shufersal",
    "chain_name": "שופרסל",
    "subchain": "שופרסל אקספרס",
    "store_id": "844",
    "name": "אקספרס נגבה רמת גן",
    "address": "נגבה 8",
    "city": "רמת גן",
    "zipcode": "",
    "lat": 32.0833,
    "lon": 34.8147
  },
  {
    "chain": "shufersal",
    "chain_name": "שופרסל",
    "subchain": "שופרסל שלי",
    "store_id": "36",
    "name": "שלי כ\"ס- רוטשילד",
    "address": "רוטשילד 65",
    "city": "כפר-סבא",
    "zipcode": "4420131",
    "lat": null,
    "lon": null
  },
  {
    "chain": "shufersal",
    "chain_name": "שופרסל",
    "subchain": "שופרסל אקספרס",
    "store_id": "61",
    "name": "אקספרס צור משה",
    "address": "הערבה",
    "city": "צור משה",
    "zipcode": "",
    "lat": null,
    "lon": null
  },
  {
    "chain": "shufersal",
    "chain_name": "שופרסל",
    "subchain": "שופרסל שלי",
    "store_id": "72",
    "name": "שלי רעות",
    "address": "חבל מודיעין",
    "city": "רעות",
    "zipcode": "71908",
    "lat": null,
    "lon": null
  },
  {
    "chain": "shufersal",
    "chain_name": "שופרסל",
    "subchain": "שופרסל דיל",
    "store_id": "83",
    "name": "דיל ב\"ש- שאול המלך",
    "address": "קניון שאול המלך",
    "city": "באר-שבע",
    "zipcode": "8446811",
    "lat": null,
    "lon": null
  },
  {
    "chain": "shufersal",
    "chain_name": "שופרסל",
    "subchain": "שופרסל דיל",
    "store_id": "87",
    "name": "דיל רעננה- החרושת",
    "address": "החרושת 8",
    "city": "רעננה",
    "zipcode": "4365704",
    "lat": 32.1836,
    "lon": 34.8708
  },
  {
    "chain": "shufersal",
    "chain_name": "שופרסל",
    "subchain": "שופרסל אקספרס",
    "store_id": "90",
    "name": "אקספרס גב ים באר שבע",
    "address": "האנרגיה 77",
    "city": "באר שבע",
    "zipcode": "",
    "lat": 31.253,
    "lon": 34.7915
  },
  {
    "chain": "shufersal",
    "chain_name": "שופרסל",
    "subchain": "שופרסל שלי",
    "store_id": "104",
    "name": "שלי פ\"ת- גד מכנס",
    "address": "רוטשילד 180",
    "city": "פתח תקווה",
    "zipcode": "9435700",
    "lat": 32.0841,
    "lon": 34.8878
  },
  {
    "chain": "shufersal",
    "chain_name": "שופרסל",
    "subchain": "שופרסל דיל",
    "store_id": "105",
    "name": "דיל פ\"ת- אליעזר פרדימן",
    "address": "אליעזר פרידמן 9",
    "city": "פתח תקוה",
    "zipcode": "4941916",
    "lat": null,
    "lon": null
  },
  {
    "chain": "shufersal",
    "chain_name": "שופרסל",
    "subchain": "יש חסד",
    "store_id": "111",
    "name": "יש חסד טבריה עלית-לב האג",
    "address": "לב האגם 10",
    "city": "טבריה",
    "zipcode": "14431",
    "lat": null,
    "lon": null
  },
  {
    "chain": "shufersal",
    "chain_name": "שופרסל",
    "subchain": "שופרסלדיל",
    "store_id": "122",
    "name": "דיל יבנה- ברוש דרך הים",
    "address": "דרך הים 3",
    "city": "יבנה",
    "zipcode": "8157014",
    "lat": null,
    "lon": null
  },
  {
    "chain": "shufersal",
    "chain_name": "שופרסל",
    "subchain": "שופרסל אקספרס",
    "store_id": "127",
    "name": "אקספרס טירת הכרמל",
    "address": "הדולפין 1",
    "city": "טירת הכרמל",
    "zipcode": "",
    "lat": null,
    "lon": null
  },
  {
    "chain": "shufersal",
    "chain_name": "שופרסל",
    "subchain": "שופרסל דיל",
    "store_id": "130",
    "name": "דיל נתניה- קלאוזנר עמליה",
    "address": "קלאוזנר 1",
    "city": "נתניה",
    "zipcode": "",
    "lat": 32.3286,
    "lon": 34.8572
  },
  {
    "chain": "shufersal",
    "chain_name": "שופרסל",
    "subchain": "שופרסל דיל",
    "store_id": "152",
    "name": "דיל ערד- ישפרו המנוף",
    "address": "המנוף 7",
    "city": "ערד",
    "zipcode": "8909460",
    "lat": null,
    "lon": null
  },
  {
    "chain": "shufersal",
    "chain_name": "שופרסל",
    "subchain": "שופרסל דיל",
    "store_id": "177",
    "name": "דיל מצפה רמון- בן גוריון",
    "address": "מרכז מסחרי",
    "city": "מצפה-רמון",
    "zipcode": "8060000",
    "lat": null,
    "lon": null
  },
  {
    "chain": "shufersal",
    "chain_name": "שופרסל",
    "subchain": "שופרסל דיל",
    "store_id": "181",
    "name": "דיל אשקלון- רמז",
    "address": "דוד רמז 39",
    "city": "אשקלון",
    "zipcode": "7853339",
    "lat": null,
    "lon": null
  },
  {
    "chain": "shufersal",
    "chain_name": "שופרסל",
    "subchain": "שופרסל אקספרס",
    "store_id": "186",
    "name": "אקספרס התשבי",
    "address": "התשבי 9",
    "city": "חיפה",
    "zipcode": "",
    "lat": 32.794,
    "lon": 34.9896
  },
  {
    "chain": "shufersal",
    "chain_name": "שופרסל",
    "subchain": "שופרסל שלי",
    "store_id": "212",
    "name": "שלי חיפה- ורדיה",
    "address": "ורדיה 10",
    "city": "חיפה",
    "zipcode": "3465710",
    "lat": 32.794,
    "lon": 34.9896
  },
  {
    "chain": "shufersal",
    "chain_name": "שופרסל",
    "subchain": "שופרסל אקספרס",
    "store_id": "388",
    "name": "אקספרס דניה",
    "address": "חיים הזז 5",
    "city": "חיפה",
    "zipcode": "",
    "lat": 32.794,
    "lon": 34.9896
  },
  {
    "chain": "shufersal",
    "chain_name": "שופרסל",
    "subchain": "שופרסל אקספרס",
    "store_id": "393",
    "name": "אקספרס להבים באר שבע",
    "address": "שדרות הרימון",
    "city": "באר שבע",
    "zipcode": "",
    "lat": 31.253,
    "lon": 34.7915
  },
  {
    "chain": "shufersal",
    "chain_name": "שופרסל",
    "subchain": "שופרסל אקספרס",
    "store_id": "263",
    "name": "שופרסל אקספרס מקס ברוד",
    "address": "רח' מקס ברוד 34",
    "city": "תל אביב",
    "zipcode": "",
    "lat": 32.0853,
    "lon": 34.7818
  },
  {
    "chain": "shufersal",
    "chain_name": "שופרסל",
    "subchain": "שופרסל אקספרס",
    "store_id": "274",
    "name": "אקספרס ת\"א- פלורנטין",
    "address": "פלורנטין 27",
    "city": "תל אביב",
    "zipcode": "",
    "lat": 32.0853,
    "lon": 34.7818
  },
  {
    "chain": "shufersal",
    "chain_name": "שופרסל",
    "subchain": "שופרסל דיל",
    "store_id": "282",
    "name": "דיל צומת גבעת מרדכי",
    "address": "רח' שחר 79, ירושלים.",
    "city": "ירושלים",
    "zipcode": "7692000",
    "lat": 31.7683,
    "lon": 35.2137
  },
  {
    "chain": "shufersal",
    "chain_name": "שופרסל",
    "subchain": "שופרסל אקספרס",
    "store_id": "296",
    "name": "אקספרס פ\"ת רחל המשוררת",
    "address": "רחל המשוררת 29",
    "city": "פתח תקוה",
    "zipcode": "",
    "lat": null,
    "lon": null
  },
  {
    "chain": "shufersal",
    "chain_name": "שופרסל",
    "subchain": "יש בשכונה",
    "store_id": "307",
    "name": "יש קרית אתא- זבולון",
    "address": " רח.זבולון 4",
    "city": "קרית אתא",
    "zipcode": "2806007",
    "lat": null,
    "lon": null
  },
  {
    "chain": "shufersal",
    "chain_name": "שופרסל",
    "subchain": "שופרסל שלי",
    "store_id": "310",
    "name": "שלי קרית חיים- דגניה",
    "address": "ד.דגניה 14",
    "city": "קרית חיים",
    "zipcode": "2621019",
    "lat": null,
    "lon": null
  },
  {
    "chain": "shufersal",
    "chain_name": "שופרסל",
    "subchain": "שופרסל אקספרס",
    "store_id": "327",
    "name": "אקספרס חיפה- ראול ולנברג",
    "address": "ראול וולנברג 9",
    "city": "חיפה",
    "zipcode": "3499009",
    "lat": 32.794,
    "lon": 34.9896
  },
  {
    "chain": "shufersal",
    "chain_name": "שופרסל",
    "subchain": "שופרסל אקספרס",
    "store_id": "335",
    "name": "אקספרס כ\"ס- בן גוריון",
    "address": "בן גוריון 35",
    "city": "כפר סבא",
    "zipcode": "",
    "lat": 32.178,
    "lon": 34.9065
  },
  {
    "chain": "shufersal",
    "chain_name": "שופרסל",
    "subchain": "שופרסל דיל",
    "store_id": "344",
    "name": "דיל מעלות- דרך האלוף עוז",
    "address": "קניון כוכב הצפון",
    "city": "מעלות",
    "zipcode": "21020",
    "lat": null,
    "lon": null
  },
  {
    "chain": "shufersal",
    "chain_name": "שופרסל",
    "subchain": "שופרסל דיל",
    "store_id": "350",
    "name": "דיל גבעת אולגה-הרב ניסים",
    "address": "שד' ברוך בוארון1",
    "city": "גבעת אולגה",
    "zipcode": "",
    "lat": null,
    "lon": null
  },
  {
    "chain": "shufersal",
    "chain_name": "שופרסל",
    "subchain": "שופרסל שלי",
    "store_id": "365",
    "name": "שלי פרדס חנה כרכור- קדמה",
    "address": "דרך הקידמה צמרת",
    "city": "כרכור",
    "zipcode": "3707307",
    "lat": null,
    "lon": null
  },
  {
    "chain": "shufersal",
    "chain_name": "שופרסל",
    "subchain": "שופרסל אקספרס",
    "store_id": "376",
    "name": "אקספרס רעננה- משה דיין",
    "address": "משה דיין 8",
    "city": "רעננה",
    "zipcode": "",
    "lat": 32.1836,
    "lon": 34.8708
  },
  {
    "chain": "shufersal",
    "chain_name": "שופרסל",
    "subchain": "שופרסל אקספרס",
    "store_id": "400",
    "name": "אקספרס שבזי ראש העין",
    "address": "שלמה שבזי 172",
    "city": "ראש העין",
    "zipcode": "",
    "lat": null,
    "lon": null
  },
  {
    "chain": "shufersal",
    "chain_name": "שופרסל",
    "subchain": "שופרסל דיל",
    "store_id": "413",
    "name": "שופרסל ONLINE",
    "address": "WWW.SHUFERSAL.CO.IL",
    "city": "",
    "zipcode": "",
    "lat": null,
    "lon": null
  },
  {
    "chain": "shufersal",
    "chain_name": "שופרסל",
    "subchain": "שופרסל אקספרס",
    "store_id": "445",
    "name": "אקספרס רחובות",
    "address": "רח' יעקב 41",
    "city": "רחובות",
    "zipcode": "",
    "lat": null,
    "lon": null
  },
  {
    "chain": "shufersal",
    "chain_name": "שופרסל",
    "subchain": "שופרסל אקספרס",
    "store_id": "478",
    "name": "אקספרס גדרה",
    "address": "דרך האילנות 41",
    "city": "גדרה",
    "zipcode": "",
    "lat": null,
    "lon": null
  },
  {
    "chain": "shufersal",
    "chain_name": "שופרסל",
    "subchain": "שופרסל אקספרס",
    "store_id": "479",
    "name": "אקספרס בר אילן",
    "address": "בר אילן 24",
    "city": "רעננה",
    "zipcode": "",
    "lat": 32.1836,
    "lon": 34.8708
  },
  {
    "chain": "shufersal",
    "chain_name": "שופרסל",
    "subchain": "Be",
    "store_id": "602",
    "name": "BE (פ.י) אשקלון מרינה",
    "address": "מרינה",
    "city": "אשקלון",
    "zipcode": "",
    "lat": null,
    "lon": null
  },
  {
    "chain": "shufersal",
    "chain_name": "שופרסל",
    "subchain": "יש חסד",
    "store_id": "606",
    "name": "יש חסד בית שמש- מ. מסחרי",
    "address": "מרכז מסחרי רמה א",
    "city": "בית שמש",
    "zipcode": "99090",
    "lat": null,
    "lon": null
  },
  {
    "chain": "shufersal",
    "chain_name": "שופרסל",
    "subchain": "יש חסד",
    "store_id": "607",
    "name": "יש חסד מודיעין עלי-ק.ספר",
    "address": "אבני נזר 46",
    "city": "קרית ספר",
    "zipcode": "",
    "lat": null,
    "lon": null
  },
  {
    "chain": "shufersal",
    "chain_name": "שופרסל",
    "subchain": "יש חסד",
    "store_id": "608",
    "name": "יש חסד ירושלים-קרית שאול",
    "address": "נאג'רה 2",
    "city": "ירושלים",
    "zipcode": "",
    "lat": 31.7683,
    "lon": 35.2137
  },
  {
    "chain": "shufersal",
    "chain_name": "שופרסל",
    "subchain": "Be",
    "store_id": "613",
    "name": "BE נהריה",
    "address": "קניון הצפון , אירית 2",
    "city": "נהריה",
    "zipcode": "",
    "lat": null,
    "lon": null
  },
  {
    "chain": "shufersal",
    "chain_name": "שופרסל",
    "subchain": "Be",
    "store_id": "614",
    "name": "BE נתניה",
    "address": "נתניה",
    "city": "נתניה",
    "zipcode": "",
    "lat": 32.3286,
    "lon": 34.8572
  },
  {
    "chain": "shufersal",
    "chain_name": "שופרסל",
    "subchain": "Be",
    "store_id": "635",
    "name": "BE 16 ראש-פינה",
    "address": "ראש-פינה",
    "city": "ראש-פינה",
    "zipcode": "",
    "lat": null,
    "lon": null
  },
  {
    "chain": "shufersal",
    "chain_name": "שופרסל",
    "subchain": "Be",
    "store_id": "637",
    "name": "BE רעננה",
    "address": "האחוזה 114",
    "city": "רעננה",
    "zipcode": "",
    "lat": 32.1836,
    "lon": 34.8708
  },
  {
    "chain": "shufersal",
    "chain_name": "שופרסל",
    "subchain": "Be",
    "store_id": "641",
    "name": "BE גבעתיים",
    "address": "גבעתיים",
    "city": "גבעתיים",
    "zipcode": "",
    "lat": 32.07,
    "lon": 34.81
  },
  {
    "chain": "shufersal",
    "chain_name": "שופרסל",
    "subchain": "Be",
    "store_id": "654",
    "name": "BE אם המושבות",
    "address": "אם המושבות",
    "city": "פתח תקווה",
    "zipcode": "",
    "lat": 32.0841,
    "lon": 34.8878
  },
  {
    "chain": "shufersal",
    "chain_name": "שופרסל",
    "subchain": "שופרסל דיל",
    "store_id": "203",
    "name": "דיל רמלה לוד- הצופית",
    "address": "הצופית 40",
    "city": "רמלה",
    "zipcode": "",
    "lat": null,
    "lon": null
  },
  {
    "chain": "shufersal",
    "chain_name": "שופרסל",
    "subchain": "שופרסל דיל",
    "store_id": "209",
    "name": "דיל אשקלון- רוטשילד",
    "address": "אדמונד רוטשילד 8",
    "city": "אשקלון",
    "zipcode": "7822602",
    "lat": null,
    "lon": null
  },
  {
    "chain": "shufersal",
    "chain_name": "שופרסל",
    "subchain": "יש חסד",
    "store_id": "219",
    "name": "יש חסד בני ברק- עזרא",
    "address": "עזרה בני ברק",
    "city": "בני ברק",
    "zipcode": "5155103",
    "lat": 32.0833,
    "lon": 34.8333
  },
  {
    "chain": "shufersal",
    "chain_name": "שופרסל",
    "subchain": "שופרסל אקספרס",
    "store_id": "224",
    "name": "אקספרס ראשל\"צ-נווה דקלים",
    "address": "נווה דקלים 44",
    "city": "ראשון לציון",
    "zipcode": "",
    "lat": 31.973,
    "lon": 34.7925
  },
  {
    "chain": "shufersal",
    "chain_name": "שופרסל",
    "subchain": "שופרסל שלי",
    "store_id": "232",
    "name": "שלי צפת- מ.מסחר רמת רזים",
    "address": "מרכז מסחרי רמת",
    "city": "צפת",
    "zipcode": "1341219",
    "lat": null,
    "lon": null
  },
  {
    "chain": "shufersal",
    "chain_name": "שופרסל",
    "subchain": "שופרסל אקספרס",
    "store_id": "236",
    "name": "אקספרס אילת שחמון",
    "address": "ששת הימים 310",
    "city": "אילת",
    "zipcode": "",
    "lat": null,
    "lon": null
  },
  {
    "chain": "shufersal",
    "chain_name": "שופרסל",
    "subchain": "Be",
    "store_id": "242",
    "name": "BE ויוה חדרה",
    "address": "מרכז מסחרי ויוה",
    "city": "חדרה",
    "zipcode": "",
    "lat": null,
    "lon": null
  },
  {
    "chain": "shufersal",
    "chain_name": "שופרסל",
    "subchain": "שופרסל דיל",
    "store_id": "249",
    "name": "דיל נתניה- פולג",
    "address": "גיבורי ישראל 5",
    "city": "נתניה",
    "zipcode": "4250409",
    "lat": 32.3286,
    "lon": 34.8572
  },
  {
    "chain": "shufersal",
    "chain_name": "שופרסל",
    "subchain": "שופרסל אקספרס",
    "store_id": "311",
    "name": "אקספרס רחובות- בוסתנאי",
    "address": "בוסתנאי 14",
    "city": "רחובות",
    "zipcode": "",
    "lat": null,
    "lon": null
  },
  {
    "chain": "shufersal",
    "chain_name": "שופרסל",
    "subchain": "שופרסל שלי",
    "store_id": "333",
    "name": "שלי חיפה- אורן",
    "address": "רח.אורן 25 רוממה",
    "city": "חיפה",
    "zipcode": "3473402",
    "lat": 32.794,
    "lon": 34.9896
  },
  {
    "chain": "shufersal",
    "chain_name": "שופרסל",
    "subchain": "שופרסל דיל",
    "store_id": "339",
    "name": "דיל טבריה- העמקים",
    "address": "העמקים 1",
    "city": "טבריה",
    "zipcode": "1420401",
    "lat": null,
    "lon": null
  },
  {
    "chain": "shufersal",
    "chain_name": "שופרסל",
    "subchain": "שופרסל דיל",
    "store_id": "342",
    "name": "דיל כרמיאל- קניון לב",
    "address": "מורד הגיא 100",
    "city": "כרמיאל",
    "zipcode": "2192401",
    "lat": null,
    "lon": null
  },
  {
    "chain": "shufersal",
    "chain_name": "שופרסל",
    "subchain": "שופרסל אקספרס",
    "store_id": "362",
    "name": "אקספרס קרן היסוד ירושלים",
    "address": "קרן היסוד 27",
    "city": "ירושלים",
    "zipcode": "",
    "lat": 31.7683,
    "lon": 35.2137
  },
  {
    "chain": "shufersal",
    "chain_name": "שופרסל",
    "subchain": "שופרסל אקספרס",
    "store_id": "372",
    "name": "אקספרס בת ים- חשמונאים",
    "address": "החשמונאים 41",
    "city": "בת ים",
    "zipcode": "",
    "lat": 32.0231,
    "lon": 34.7518
  },
  {
    "chain": "shufersal",
    "chain_name": "שופרסל",
    "subchain": "שופרסל אקספרס",
    "store_id": "377",
    "name": "אקספרס ירושלים- הדסה",
    "address": "בית חולים הדסה",
    "city": "ירושלים",
    "zipcode": "",
    "lat": 31.7683,
    "lon": 35.2137
  },
  {
    "chain": "shufersal",
    "chain_name": "שופרסל",
    "subchain": "שופרסל שלי",
    "store_id": "284",
    "name": "שלי תל מונד- הדקל",
    "address": "הדקל 49",
    "city": "תל מונד",
    "zipcode": "4060049",
    "lat": null,
    "lon": null
  },
  {
    "chain": "shufersal",
    "chain_name": "שופרסל",
    "subchain": "יש בשכונה",
    "store_id": "288",
    "name": "יש רחובות- סירני",
    "address": "חיים סרני 1",
    "city": "רחובות",
    "zipcode": "7626902",
    "lat": null,
    "lon": null
  },
  {
    "chain": "shufersal",
    "chain_name": "שופרסל",
    "subchain": "שופרסל דיל",
    "store_id": "290",
    "name": "דיל  פ\"ת- יכין סנטר",
    "address": "יצחק רבין 17",
    "city": "פתח-תקווה",
    "zipcode": "4951711",
    "lat": null,
    "lon": null
  },
  {
    "chain": "shufersal",
    "chain_name": "שופרסל",
    "subchain": "Be",
    "store_id": "660",
    "name": "סניף רמת השרון",
    "address": "סוקולוב 74",
    "city": "רמת השרון",
    "zipcode": "",
    "lat": null,
    "lon": null
  },
  {
    "chain": "shufersal",
    "chain_name": "שופרסל",
    "subchain": "Be",
    "store_id": "662",
    "name": "BE בית חולים אשדוד",
    "address": "בי\"ח אסותא אשדוד",
    "city": "אשדוד",
    "zipcode": "",
    "lat": 31.8044,
    "lon": 34.6553
  },
  {
    "chain": "shufersal",
    "chain_name": "שופרסל",
    "subchain": "Be",
    "store_id": "665",
    "name": "BE חשמונאים",
    "address": "החשמונאים 84 פינת קרליבך",
    "city": "תל אביב",
    "zipcode": "",
    "lat": 32.0853,
    "lon": 34.7818
  },
  {
    "chain": "shufersal",
    "chain_name": "שופרסל",
    "subchain": "Be",
    "store_id": "682",
    "name": "BE כפר סבא צפון",
    "address": "כפר סבא צפון",
    "city": "כפר סבא צפון",
    "zipcode": "",
    "lat": null,
    "lon": null
  },
  {
    "chain": "shufersal",
    "chain_name": "שופרסל",
    "subchain": "Be",
    "store_id": "697",
    "name": "BE  ירכא",
    "address": "ירכא",
    "city": "ירכא",
    "zipcode": "",
    "lat": null,
    "lon": null
  },
  {
    "chain": "shufersal",
    "chain_name": "שופרסל",
    "subchain": "Be",
    "store_id": "776",
    "name": "BE טירה",
    "address": "טארק עבדאלחי",
    "city": "טירה",
    "zipcode": "",
    "lat": null,
    "lon": null
  },
  {
    "chain": "shufersal",
    "chain_name": "שופרסל",
    "subchain": "שופרסל אקספרס",
    "store_id": "779",
    "name": "אקספרס יבנה",
    "address": "דרך ז'בוטינסקי",
    "city": "יבנה",
    "zipcode": "",
    "lat": null,
    "lon": null
  },
  {
    "chain": "shufersal",
    "chain_name": "שופרסל",
    "subchain": "שופרסל אקספרס",
    "store_id": "780",
    "name": "אקספרס המעפיל רמת גן",
    "address": "המעפיל",
    "city": "רמת גן",
    "zipcode": "0",
    "lat": 32.0833,
    "lon": 34.8147
  },
  {
    "chain": "shufersal",
    "chain_name": "שופרסל",
    "subchain": "Be",
    "store_id": "781",
    "name": "BE פרישמן ת\"א",
    "address": "דיזינגוף 102",
    "city": "תל אביב",
    "zipcode": "",
    "lat": 32.0853,
    "lon": 34.7818
  },
  {
    "chain": "shufersal",
    "chain_name": "שופרסל",
    "subchain": "Be",
    "store_id": "783",
    "name": "BE מודיעין",
    "address": "גינת זבולון 24",
    "city": "מודיעין",
    "zipcode": "",
    "lat": null,
    "lon": null
  },
  {
    "chain": "shufersal",
    "chain_name": "שופרסל",
    "subchain": "Be",
    "store_id": "785",
    "name": "BE מעלה אדומים",
    "address": "",
    "city": "מעלה אדומים",
    "zipcode": "",
    "lat": null,
    "lon": null
  },
  {
    "chain": "shufersal",
    "chain_name": "שופרסל",
    "subchain": "שופרסל אקספרס",
    "store_id": "845",
    "name": "אקספרס נחשון כפר סבא",
    "address": "נחשון 10",
    "city": "כפר סבא",
    "zipcode": "",
    "lat": 32.178,
    "lon": 34.9065
  },
  {
    "chain": "shufersal",
    "chain_name": "שופרסל",
    "subchain": "שופרסל שלי",
    "store_id": "33",
    "name": "שלי חיפה- סטלה",
    "address": "טשרניחובסקי/35",
    "city": "חיפה",
    "zipcode": "3570323",
    "lat": 32.794,
    "lon": 34.9896
  },
  {
    "chain": "shufersal",
    "chain_name": "שופרסל",
    "subchain": "שופרסל דיל",
    "store_id": "45",
    "name": "דיל ירושלים- תלפיות",
    "address": "פייר קניג 35",
    "city": "ירושלים",
    "zipcode": "9346943",
    "lat": 31.7683,
    "lon": 35.2137
  },
  {
    "chain": "shufersal",
    "chain_name": "שופרסל",
    "subchain": "שופרסל דיל",
    "store_id": "98",
    "name": "דיל קרית טבעון- אלונים",
    "address": "חוצות אלונים",
    "city": "טבעון",
    "zipcode": "3604701",
    "lat": null,
    "lon": null
  },
  {
    "chain": "shufersal",
    "chain_name": "שופרסל",
    "subchain": "שופרסל שלי",
    "store_id": "102",
    "name": "שלי פרדסיה- הנשיא",
    "address": "הנשיא 1 צ.פרדסיה",
    "city": "פרדסיה",
    "zipcode": "4281500",
    "lat": null,
    "lon": null
  },
  {
    "chain": "shufersal",
    "chain_name": "שופרסל",
    "subchain": "שופרסל שלי",
    "store_id": "109",
    "name": "שלי ראש העין- ז'בוטינסקי",
    "address": "גבעת טל",
    "city": "ראש העין",
    "zipcode": "4857301",
    "lat": null,
    "lon": null
  },
  {
    "chain": "shufersal",
    "chain_name": "שופרסל",
    "subchain": "שופרסל דיל",
    "store_id": "180",
    "name": "דיל ק.מוצקין- בן גוריון",
    "address": "שד' בן גוריון 84",
    "city": "קרית מוצקין",
    "zipcode": "2642439",
    "lat": null,
    "lon": null
  },
  {
    "chain": "shufersal",
    "chain_name": "שופרסל",
    "subchain": "שופרסל דיל",
    "store_id": "222",
    "name": "דיל רמות ב\"ש ב'",
    "address": "הערים התאומות 28",
    "city": "באר שבע",
    "zipcode": "",
    "lat": 31.253,
    "lon": 34.7915
  },
  {
    "chain": "shufersal",
    "chain_name": "שופרסל",
    "subchain": "שופרסל דיל",
    "store_id": "260",
    "name": "דיל ירושלים-קניון תלפיות",
    "address": "האומן 17",
    "city": "ירושלים",
    "zipcode": "9342111",
    "lat": 31.7683,
    "lon": 35.2137
  },
  {
    "chain": "shufersal",
    "chain_name": "שופרסל",
    "subchain": "יש חסד",
    "store_id": "610",
    "name": "יש חסד ירושלים- רמת שלמה",
    "address": "ברכת אברהם 22",
    "city": "ירושלים",
    "zipcode": "",
    "lat": 31.7683,
    "lon": 35.2137
  },
  {
    "chain": "shufersal",
    "chain_name": "שופרסל",
    "subchain": "Be",
    "store_id": "652",
    "name": "BE מודיעין",
    "address": "מודיעין",
    "city": "מודיעין",
    "zipcode": "",
    "lat": null,
    "lon": null
  },
  {
    "chain": "shufersal",
    "chain_name": "שופרסל",
    "subchain": "Be",
    "store_id": "653",
    "name": "BE בני-ברק",
    "address": "בני-ברק",
    "city": "בני-ברק",
    "zipcode": "",
    "lat": null,
    "lon": null
  },
  {
    "chain": "shufersal",
    "chain_name": "שופרסל",
    "subchain": "Be",
    "store_id": "658",
    "name": "BE קריית אתא",
    "address": "קריית אתא",
    "city": "קריית אתא",
    "zipcode": "",
    "lat": null,
    "lon": null
  },
  {
    "chain": "shufersal",
    "chain_name": "שופרסל",
    "subchain": "Be",
    "store_id": "666",
    "name": "BE עזריאלי מודיעין",
    "address": "קניון עזריאלי",
    "city": "מודיעין",
    "zipcode": "",
    "lat": null,
    "lon": null
  },
  {
    "chain": "shufersal",
    "chain_name": "שופרסל",
    "subchain": "",
    "store_id": "789",
    "name": "גוד מרקט אופקים",
    "address": "",
    "city": "",
    "zipcode": "",
    "lat": null,
    "lon": null
  },
  {
    "chain": "shufersal",
    "chain_name": "שופרסל",
    "subchain": "Be",
    "store_id": "270",
    "name": "BE חולון הפלד",
    "address": "חולון הפלד 270",
    "city": "חולון",
    "zipcode": "",
    "lat": 32.0158,
    "lon": 34.7789
  },
  {
    "chain": "shufersal",
    "chain_name": "שופרסל",
    "subchain": "שופרסל שלי",
    "store_id": "272",
    "name": "שלי גבעתיים- ויצמן",
    "address": "ויצמן 20",
    "city": "גבעתיים",
    "zipcode": "5339005",
    "lat": 32.07,
    "lon": 34.81
  },
  {
    "chain": "shufersal",
    "chain_name": "שופרסל",
    "subchain": "שופרסל דיל",
    "store_id": "121",
    "name": "דיל נהריה- לוחמי הגטאות",
    "address": "לוחמי הגטאות 36",
    "city": "נהריה",
    "zipcode": "2244744",
    "lat": null,
    "lon": null
  },
  {
    "chain": "shufersal",
    "chain_name": "שופרסל",
    "subchain": "שופרסל דיל",
    "store_id": "132",
    "name": "דיל ת\"א- השלום",
    "address": "דרך מנחם בגין132",
    "city": "תל אביב",
    "zipcode": "6701101",
    "lat": 32.0853,
    "lon": 34.7818
  },
  {
    "chain": "shufersal",
    "chain_name": "שופרסל",
    "subchain": "שופרסל דיל",
    "store_id": "139",
    "name": "דיל צפת-  דובק ויצמן",
    "address": "ויצמן 20",
    "city": "צפת",
    "zipcode": "1321736",
    "lat": null,
    "lon": null
  },
  {
    "chain": "shufersal",
    "chain_name": "שופרסל",
    "subchain": "שופרסל דיל",
    "store_id": "141",
    "name": "דיל יוקנעם- שדרות רבין",
    "address": "שדרות רבין 9",
    "city": "יקנעם",
    "zipcode": "2060000",
    "lat": null,
    "lon": null
  },
  {
    "chain": "shufersal",
    "chain_name": "שופרסל",
    "subchain": "שופרסל דיל",
    "store_id": "142",
    "name": "דיל זכרון- המייסדים",
    "address": "המייסדים",
    "city": "זכרון יעקב",
    "zipcode": "3095067",
    "lat": null,
    "lon": null
  },
  {
    "chain": "shufersal",
    "chain_name": "שופרסל",
    "subchain": "שופרסל אקספרס",
    "store_id": "148",
    "name": "אקספרס מלצר רחובות",
    "address": "מלצר 20",
    "city": "רחובות",
    "zipcode": "",
    "lat": null,
    "lon": null
  },
  {
    "chain": "shufersal",
    "chain_name": "שופרסל",
    "subchain": "שופרסל דיל",
    "store_id": "151",
    "name": "דיל רעננה- קניון רננים",
    "address": "רח.המלאכה 2",
    "city": "רעננה",
    "zipcode": "4366101",
    "lat": 32.1836,
    "lon": 34.8708
  },
  {
    "chain": "shufersal",
    "chain_name": "שופרסל",
    "subchain": "שופרסל דיל",
    "store_id": "159",
    "name": "דיל רמת הנשיא חיפה",
    "address": "שלמה המלך 55",
    "city": "חיפה",
    "zipcode": "",
    "lat": 32.794,
    "lon": 34.9896
  },
  {
    "chain": "shufersal",
    "chain_name": "שופרסל",
    "subchain": "שופרסל שלי",
    "store_id": "168",
    "name": "שלי אשדוד- כינרת",
    "address": "שכונת י\"א כנרת",
    "city": "אשדוד",
    "zipcode": "7770071",
    "lat": 31.8044,
    "lon": 34.6553
  },
  {
    "chain": "shufersal",
    "chain_name": "שופרסל",
    "subchain": "שופרסל דיל",
    "store_id": "174",
    "name": "דיל ערד- קניון",
    "address": "הקנאים 29",
    "city": "ערד",
    "zipcode": "8902342",
    "lat": null,
    "lon": null
  },
  {
    "chain": "shufersal",
    "chain_name": "שופרסל",
    "subchain": "",
    "store_id": "176",
    "name": "שערי רווחה ירושלים",
    "address": "לואיס ברנדס 3",
    "city": "ירושלים",
    "zipcode": "",
    "lat": 31.7683,
    "lon": 35.2137
  },
  {
    "chain": "shufersal",
    "chain_name": "שופרסל",
    "subchain": "Be",
    "store_id": "178",
    "name": "BE סגולה פתח תקווה",
    "address": "הרב מסעוד אשר פינטו 20",
    "city": "פתח תקווה",
    "zipcode": "",
    "lat": 32.0841,
    "lon": 34.8878
  },
  {
    "chain": "shufersal",
    "chain_name": "שופרסל",
    "subchain": "שופרסל אקספרס",
    "store_id": "179",
    "name": "שופרסל אקספרס הרוא\"ה רמת גן",
    "address": "רח' הרוא\"ה 152",
    "city": "רמת גן",
    "zipcode": "",
    "lat": 32.0833,
    "lon": 34.8147
  },
  {
    "chain": "shufersal",
    "chain_name": "שופרסל",
    "subchain": "שופרסל דיל",
    "store_id": "189",
    "name": "דיל פרדס חנה",
    "address": "14 רחוב הבנים",
    "city": "פרדס חנה",
    "zipcode": "",
    "lat": null,
    "lon": null
  },
  {
    "chain": "shufersal",
    "chain_name": "שופרסל",
    "subchain": "שופרסל דיל",
    "store_id": "190",
    "name": "דיל חצור- הגלילית",
    "address": "קניון גליל עליון",
    "city": "חצור-הגלילית",
    "zipcode": "1030000",
    "lat": null,
    "lon": null
  },
  {
    "chain": "shufersal",
    "chain_name": "שופרסל",
    "subchain": "שופרסל דיל",
    "store_id": "199",
    "name": "דיל בת ים- בלפור",
    "address": "בלפור 25",
    "city": "בת ים",
    "zipcode": "0",
    "lat": 32.0231,
    "lon": 34.7518
  },
  {
    "chain": "shufersal",
    "chain_name": "שופרסל",
    "subchain": "שופרסל אקספרס",
    "store_id": "231",
    "name": "אקספרס רעננה- רבקה גרובר",
    "address": "רבקה גובר  7",
    "city": "רעננה",
    "zipcode": "",
    "lat": 32.1836,
    "lon": 34.8708
  },
  {
    "chain": "shufersal",
    "chain_name": "שופרסל",
    "subchain": "שופרסל אקספרס",
    "store_id": "239",
    "name": "אקספרס יפו- הדרור",
    "address": "הדרור 2",
    "city": "תל אביב",
    "zipcode": "",
    "lat": 32.0853,
    "lon": 34.7818
  },
  {
    "chain": "shufersal",
    "chain_name": "שופרסל",
    "subchain": "שופרסל שלי",
    "store_id": "247",
    "name": "שלי חולון- רבינוביץ",
    "address": "רבינוביץ 58",
    "city": "חולון",
    "zipcode": "5867256",
    "lat": 32.0158,
    "lon": 34.7789
  },
  {
    "chain": "shufersal",
    "chain_name": "שופרסל",
    "subchain": "שופרסל דיל",
    "store_id": "255",
    "name": "דיל כפר תבור",
    "address": "4 רחוב הבזלת",
    "city": "כפר תבור",
    "zipcode": "",
    "lat": null,
    "lon": null
  },
  {
    "chain": "shufersal",
    "chain_name": "שופרסל",
    "subchain": "Be",
    "store_id": "256",
    "name": "BE נס ציונה",
    "address": "הפטיש",
    "city": "נס ציונה",
    "zipcode": "",
    "lat": null,
    "lon": null
  },
  {
    "chain": "shufersal",
    "chain_name": "שופרסל",
    "subchain": "שופרסל שלי",
    "store_id": "266",
    "name": "שלי רזין אילת",
    "address": "רח' שדרות התמרים 37",
    "city": "אילת",
    "zipcode": "",
    "lat": null,
    "lon": null
  },
  {
    "chain": "shufersal",
    "chain_name": "שופרסל",
    "subchain": "שופרסל אקספרס",
    "store_id": "277",
    "name": "אקספרס.בני בנימין הרצליה",
    "address": "בני בנימין 23",
    "city": "הרצליה",
    "zipcode": "",
    "lat": 32.1656,
    "lon": 34.8467
  },
  {
    "chain": "shufersal",
    "chain_name": "שופרסל",
    "subchain": "שופרסל אקספרס",
    "store_id": "279",
    "name": "אקספרס-ת\"א דרויאנוב",
    "address": "רח' דרויאנוב 5",
    "city": "תל אביב",
    "zipcode": "",
    "lat": 32.0853,
    "lon": 34.7818
  },
  {
    "chain": "shufersal",
    "chain_name": "שופרסל",
    "subchain": "שופרסל אקספרס",
    "store_id": "285",
    "name": "אקספרס סוקולוב פ\"ת",
    "address": "סוקולוב 26",
    "city": "פתח תקווה",
    "zipcode": "",
    "lat": 32.0841,
    "lon": 34.8878
  },
  {
    "chain": "shufersal",
    "chain_name": "שופרסל",
    "subchain": "שופרסל שלי",
    "store_id": "287",
    "name": "שלי גבעתיים-שביט",
    "address": "עמישב 45",
    "city": "גבעתיים",
    "zipcode": "5348832",
    "lat": 32.07,
    "lon": 34.81
  },
  {
    "chain": "shufersal",
    "chain_name": "שופרסל",
    "subchain": "שופרסל אקספרס",
    "store_id": "299",
    "name": "אקספרס הוד השרון",
    "address": " חנקין 12",
    "city": "הוד השרון",
    "zipcode": "0",
    "lat": 32.15,
    "lon": 34.8917
  },
  {
    "chain": "shufersal",
    "chain_name": "שופרסל",
    "subchain": "יש חסד",
    "store_id": "300",
    "name": "יש חסד בארות יצחק- פאוור",
    "address": "בארות יצחק",
    "city": "בארות יצחק",
    "zipcode": "",
    "lat": null,
    "lon": null
  },
  {
    "chain": "shufersal",
    "chain_name": "שופרסל",
    "subchain": "שופרסל אקספרס",
    "store_id": "325",
    "name": "אקספרס ששת הימים נס ציונ",
    "address": "ששת הימים 1",
    "city": "נס ציונה",
    "zipcode": "",
    "lat": null,
    "lon": null
  },
  {
    "chain": "shufersal",
    "chain_name": "שופרסל",
    "subchain": "יש בשכונה",
    "store_id": "329",
    "name": "יש  יוקנעם עילית- היובלים",
    "address": "מ.מסחרי יקנעם על",
    "city": "יוקנעם",
    "zipcode": "20692",
    "lat": null,
    "lon": null
  },
  {
    "chain": "shufersal",
    "chain_name": "שופרסל",
    "subchain": "שופרסל שלי",
    "store_id": "330",
    "name": "שלי חיפה- נתיב חן",
    "address": "נתיב חן 1,נוה שא",
    "city": "חיפה",
    "zipcode": "3224001",
    "lat": 32.794,
    "lon": 34.9896
  },
  {
    "chain": "shufersal",
    "chain_name": "שופרסל",
    "subchain": "שופרסל שלי",
    "store_id": "336",
    "name": "שלי חיפה- רמות ספיר",
    "address": "רח' גוט לוין 48",
    "city": "חיפה",
    "zipcode": "3292240",
    "lat": 32.794,
    "lon": 34.9896
  },
  {
    "chain": "shufersal",
    "chain_name": "שופרסל",
    "subchain": "שופרסל אקספרס",
    "store_id": "338",
    "name": "אקספרס כוכב הצפון",
    "address": "בוני העיר 9",
    "city": "ת\"א",
    "zipcode": "",
    "lat": null,
    "lon": null
  },
  {
    "chain": "shufersal",
    "chain_name": "שופרסל",
    "subchain": "שופרסל אקספרס",
    "store_id": "340",
    "name": "אקספרס ת\"א- זריצקי",
    "address": "זריצקי 4",
    "city": "תל אביב",
    "zipcode": "",
    "lat": 32.0853,
    "lon": 34.7818
  },
  {
    "chain": "shufersal",
    "chain_name": "שופרסל",
    "subchain": "שופרסל דיל",
    "store_id": "110",
    "name": "דיל הפארק ב\"ש",
    "address": "20 נחל פרת",
    "city": "באר שבע",
    "zipcode": "",
    "lat": 31.253,
    "lon": 34.7915
  },
  {
    "chain": "shufersal",
    "chain_name": "שופרסל",
    "subchain": "Be",
    "store_id": "667",
    "name": "BE מדיקל הלל יפה חדרה",
    "address": "מרכז רפואי הלל יפה חדרה",
    "city": "חדרה",
    "zipcode": "",
    "lat": null,
    "lon": null
  },
  {
    "chain": "shufersal",
    "chain_name": "שופרסל",
    "subchain": "Be",
    "store_id": "670",
    "name": "BE (פ.י) איכילוב",
    "address": "וייצמן 6",
    "city": "תל אביב",
    "zipcode": "",
    "lat": 32.0853,
    "lon": 34.7818
  },
  {
    "chain": "shufersal",
    "chain_name": "שופרסל",
    "subchain": "Be",
    "store_id": "674",
    "name": "BE  תל ברוך",
    "address": "אהרון בקר 8",
    "city": "תל אביב",
    "zipcode": "",
    "lat": 32.0853,
    "lon": 34.7818
  },
  {
    "chain": "shufersal",
    "chain_name": "שופרסל",
    "subchain": "Be",
    "store_id": "675",
    "name": "BE 61 שרונים",
    "address": "קניון שרונים",
    "city": "הודהשרון",
    "zipcode": "",
    "lat": null,
    "lon": null
  },
  {
    "chain": "shufersal",
    "chain_name": "שופרסל",
    "subchain": "Be",
    "store_id": "676",
    "name": "BE יוקנעם",
    "address": "יוקנעם",
    "city": "יוקנעם",
    "zipcode": "",
    "lat": null,
    "lon": null
  },
  {
    "chain": "shufersal",
    "chain_name": "שופרסל",
    "subchain": "Be",
    "store_id": "678",
    "name": "BE עפולה",
    "address": "עפולה",
    "city": "עפולה",
    "zipcode": "",
    "lat": null,
    "lon": null
  },
  {
    "chain": "shufersal",
    "chain_name": "שופרסל",
    "subchain": "Be",
    "store_id": "345",
    "name": "BE מידטאון",
    "address": "שדרות מנחם בגין 144",
    "city": "תל אביב",
    "zipcode": "",
    "lat": 32.0853,
    "lon": 34.7818
  },
  {
    "chain": "shufersal",
    "chain_name": "שופרסל",
    "subchain": "שופרסל אקספרס",
    "store_id": "348",
    "name": "אקספרס פ\"ת- קק\"ל",
    "address": "קק\"ל 2",
    "city": "פתח תקווה",
    "zipcode": "",
    "lat": 32.0841,
    "lon": 34.8878
  },
  {
    "chain": "shufersal",
    "chain_name": "שופרסל",
    "subchain": "שופרסל אקספרס",
    "store_id": "353",
    "name": "אקספרס יותם",
    "address": "יותם 20",
    "city": "חיפה",
    "zipcode": "",
    "lat": 32.794,
    "lon": 34.9896
  },
  {
    "chain": "shufersal",
    "chain_name": "שופרסל",
    "subchain": "שופרסל דיל",
    "store_id": "359",
    "name": "דיל חיפה- גרנד קניון",
    "address": "שמחה גולן 54",
    "city": "חיפה",
    "zipcode": "3299001",
    "lat": 32.794,
    "lon": 34.9896
  },
  {
    "chain": "shufersal",
    "chain_name": "שופרסל",
    "subchain": "שופרסל אקספרס",
    "store_id": "360",
    "name": "אקספרס מאירוביץ ראשל\"צ",
    "address": "מאירוביץ 17",
    "city": "ראשון לציון",
    "zipcode": "",
    "lat": 31.973,
    "lon": 34.7925
  },
  {
    "chain": "shufersal",
    "chain_name": "שופרסל",
    "subchain": "שופרסלשלי",
    "store_id": "369",
    "name": "שלי שוהם- תרשיש",
    "address": "עמק איילון פינת",
    "city": "שוהם",
    "zipcode": "6080001",
    "lat": null,
    "lon": null
  },
  {
    "chain": "shufersal",
    "chain_name": "שופרסל",
    "subchain": "שופרסל אקספרס",
    "store_id": "375",
    "name": "אקספרס כ\"ס- הגליל",
    "address": "הגליל 58",
    "city": "כפר סבא",
    "zipcode": "",
    "lat": 32.178,
    "lon": 34.9065
  },
  {
    "chain": "shufersal",
    "chain_name": "שופרסל",
    "subchain": "שופרסל אקספרס",
    "store_id": "379",
    "name": "אקספרס גבעתיים- כצנלסון",
    "address": "כצנלסון 19",
    "city": "גבעתיים",
    "zipcode": "",
    "lat": 32.07,
    "lon": 34.81
  },
  {
    "chain": "shufersal",
    "chain_name": "שופרסל",
    "subchain": "שופרסל אקספרס",
    "store_id": "382",
    "name": "אקספרס פ\"ת- היבנר",
    "address": "היבנר 29",
    "city": "פתח תקוה",
    "zipcode": "",
    "lat": null,
    "lon": null
  },
  {
    "chain": "shufersal",
    "chain_name": "שופרסל",
    "subchain": "שופרסל אקספרס",
    "store_id": "390",
    "name": "שופרסל אקספרס אם המושבות",
    "address": "יעל רום 8",
    "city": "פתח תקוה",
    "zipcode": "",
    "lat": null,
    "lon": null
  },
  {
    "chain": "shufersal",
    "chain_name": "שופרסל",
    "subchain": "שופרסל אקספרס",
    "store_id": "394",
    "name": "אקספרס הכרמל כפר סבא",
    "address": "הגליל 31",
    "city": "כפר סבא",
    "zipcode": "",
    "lat": 32.178,
    "lon": 34.9065
  },
  {
    "chain": "shufersal",
    "chain_name": "שופרסל",
    "subchain": "שופרסל דיל",
    "store_id": "396",
    "name": "דיל הקדר נתניה",
    "address": "האורזים 2",
    "city": "נתניה",
    "zipcode": "",
    "lat": 32.3286,
    "lon": 34.8572
  },
  {
    "chain": "shufersal",
    "chain_name": "שופרסל",
    "subchain": "שופרסל אקספרס",
    "store_id": "397",
    "name": "אקספרס פארק עפולה",
    "address": "רובע יזרעאל",
    "city": "עפולה",
    "zipcode": "",
    "lat": null,
    "lon": null
  },
  {
    "chain": "shufersal",
    "chain_name": "שופרסל",
    "subchain": "שופרסל אקספרס",
    "store_id": "444",
    "name": "אקספרס.ב\"ש אביסרור",
    "address": "רח' יעקב כהן 8",
    "city": "באר שבע",
    "zipcode": "",
    "lat": 31.253,
    "lon": 34.7915
  },
  {
    "chain": "shufersal",
    "chain_name": "שופרסל",
    "subchain": "Be",
    "store_id": "485",
    "name": "BE אשדוד בלה",
    "address": "רוגוזין  1",
    "city": "אשדוד",
    "zipcode": "",
    "lat": 31.8044,
    "lon": 34.6553
  },
  {
    "chain": "shufersal",
    "chain_name": "שופרסל",
    "subchain": "Be",
    "store_id": "642",
    "name": "BE אלונים- טבעון",
    "address": "אלונים 1, קרית טבעון, קניון חוצות אלונים",
    "city": "קרית טבעון",
    "zipcode": "",
    "lat": null,
    "lon": null
  },
  {
    "chain": "shufersal",
    "chain_name": "שופרסל",
    "subchain": "Be",
    "store_id": "648",
    "name": "BE מאיר-כפר סבא",
    "address": "מאיר-כפר סבא",
    "city": "כפר סבא",
    "zipcode": "",
    "lat": 32.178,
    "lon": 34.9065
  },
  {
    "chain": "shufersal",
    "chain_name": "שופרסל",
    "subchain": "Be",
    "store_id": "655",
    "name": "BE רחובות מזרח",
    "address": "רחובות",
    "city": "רחובות",
    "zipcode": "",
    "lat": null,
    "lon": null
  },
  {
    "chain": "shufersal",
    "chain_name": "שופרסל",
    "subchain": "Be",
    "store_id": "233",
    "name": "BE באר שבע",
    "address": "",
    "city": "",
    "zipcode": "",
    "lat": null,
    "lon": null
  },
  {
    "chain": "shufersal",
    "chain_name": "שופרסל",
    "subchain": "שופרסל אקספרס",
    "store_id": "768",
    "name": "אקספרס קרניצי רמת גן",
    "address": "",
    "city": "",
    "zipcode": "",
    "lat": null,
    "lon": null
  },
  {
    "chain": "shufersal",
    "chain_name": "שופרסל",
    "subchain": "שופרסל אקספרס",
    "store_id": "477",
    "name": "אקספרס הציפורים מודיעין",
    "address": "2 החסידה",
    "city": "מודיעין",
    "zipcode": "",
    "lat": null,
    "lon": null
  },
  {
    "chain": "shufersal",
    "chain_name": "שופרסל",
    "subchain": "Be",
    "store_id": "762",
    "name": "BE אוסישקין",
    "address": "",
    "city": "",
    "zipcode": "",
    "lat": null,
    "lon": null
  },
  {
    "chain": "shufersal",
    "chain_name": "שופרסל",
    "subchain": "Be",
    "store_id": "788",
    "name": "BE אפרת",
    "address": "",
    "city": "",
    "zipcode": "",
    "lat": null,
    "lon": null
  },
  {
    "chain": "shufersal",
    "chain_name": "שופרסל",
    "subchain": "שופרסל שלי",
    "store_id": "216",
    "name": "שלי הוד השרון",
    "address": "2 הנשיאים",
    "city": "הוד השרון",
    "zipcode": "",
    "lat": 32.15,
    "lon": 34.8917
  },
  {
    "chain": "shufersal",
    "chain_name": "שופרסל",
    "subchain": "Be",
    "store_id": "476",
    "name": "BE הוד השרון כיכר המושבה",
    "address": "שמיר",
    "city": "הוד השרון",
    "zipcode": "",
    "lat": 32.15,
    "lon": 34.8917
  },
  {
    "chain": "shufersal",
    "chain_name": "שופרסל",
    "subchain": "Be",
    "store_id": "763",
    "name": "BE שפרעם",
    "address": "דהאר עומר אלזידאני 32",
    "city": "שפרעם",
    "zipcode": "",
    "lat": null,
    "lon": null
  },
  {
    "chain": "shufersal",
    "chain_name": "שופרסל",
    "subchain": "Be",
    "store_id": "764",
    "name": "BE סטאר אשדוד",
    "address": "ז'בוטינסקי 45",
    "city": "אשדוד",
    "zipcode": "",
    "lat": 31.8044,
    "lon": 34.6553
  },
  {
    "chain": "shufersal",
    "chain_name": "שופרסל",
    "subchain": "שופרסל דיל",
    "store_id": "254",
    "name": "דיל כרמי גת",
    "address": "1 אבני חושן",
    "city": "קרית גת",
    "zipcode": "",
    "lat": null,
    "lon": null
  },
  {
    "chain": "shufersal",
    "chain_name": "שופרסל",
    "subchain": "",
    "store_id": "771",
    "name": "גוד מרקט בני ברק",
    "address": "הרב כהנמן 64",
    "city": "בני ברק",
    "zipcode": "",
    "lat": 32.0833,
    "lon": 34.8333
  },
  {
    "chain": "shufersal",
    "chain_name": "שופרסל",
    "subchain": "",
    "store_id": "772",
    "name": "גוד מרקט מאה שערים",
    "address": "מאה שערים 42",
    "city": "ירושלים",
    "zipcode": "",
    "lat": 31.7683,
    "lon": 35.2137
  },
  {
    "chain": "shufersal",
    "chain_name": "שופרסל",
    "subchain": "שופרסל אקספרס",
    "store_id": "51",
    "name": "אקספרס הרצליה",
    "address": "צמרות 2",
    "city": "הרצליה",
    "zipcode": "",
    "lat": 32.1656,
    "lon": 34.8467
  },
  {
    "chain": "shufersal",
    "chain_name": "שופרסל",
    "subchain": "שופרסל דיל",
    "store_id": "790",
    "name": "דיל רמלה",
    "address": "10 משה לוי",
    "city": "רמלה",
    "zipcode": "",
    "lat": null,
    "lon": null
  },
  {
    "chain": "shufersal",
    "chain_name": "שופרסל",
    "subchain": "Be",
    "store_id": "786",
    "name": "BE קרית גת-כרמי גת",
    "address": "BE קרית גת-כרמי גת",
    "city": "",
    "zipcode": "",
    "lat": null,
    "lon": null
  },
  {
    "chain": "shufersal",
    "chain_name": "שופרסל",
    "subchain": "Be",
    "store_id": "787",
    "name": "BE אריאל",
    "address": "",
    "city": "",
    "zipcode": "",
    "lat": null,
    "lon": null
  },
  {
    "chain": "shufersal",
    "chain_name": "שופרסל",
    "subchain": "שופרסל אקספרס",
    "store_id": "842",
    "name": "אקספרס מטודלה תל אביב",
    "address": "30 מטודלה",
    "city": "תל אביב",
    "zipcode": "",
    "lat": 32.0853,
    "lon": 34.7818
  },
  {
    "chain": "shufersal",
    "chain_name": "שופרסל",
    "subchain": "שופרסל אקספרס",
    "store_id": "777",
    "name": "אקספרס נרקיסים",
    "address": "121 שדרות ירושליים",
    "city": "ראשון לציון",
    "zipcode": "",
    "lat": 31.973,
    "lon": 34.7925
  },
  {
    "chain": "shufersal",
    "chain_name": "שופרסל",
    "subchain": "שופרסל אקספרס",
    "store_id": "752",
    "name": "אקספרס כפר סבא דוכיפת",
    "address": "5 דוכיפת",
    "city": "כפר סבא",
    "zipcode": "",
    "lat": 32.178,
    "lon": 34.9065
  },
  {
    "chain": "shufersal",
    "chain_name": "שופרסל",
    "subchain": "שופרסל אקספרס",
    "store_id": "757",
    "name": "אקספרס קריית אונו",
    "address": "2 יצחק נבון",
    "city": "קריית אונו",
    "zipcode": "",
    "lat": null,
    "lon": null
  },
  {
    "chain": "shufersal",
    "chain_name": "שופרסל",
    "subchain": "Be",
    "store_id": "691",
    "name": "Be (פ.י) אשדוד מדיקל",
    "address": "87 העצמאות",
    "city": "אשדוד",
    "zipcode": "",
    "lat": 31.8044,
    "lon": 34.6553
  },
  {
    "chain": "shufersal",
    "chain_name": "שופרסל",
    "subchain": "",
    "store_id": "843",
    "name": "גוד מרקט בית שמש",
    "address": "55 המוראים",
    "city": "בית שמש",
    "zipcode": "",
    "lat": null,
    "lon": null
  },
  {
    "chain": "shufersal",
    "chain_name": "שופרסל",
    "subchain": "שופרסל אקספרס",
    "store_id": "301",
    "name": "אקספרס אחי מאיר",
    "address": "1 אחי מאיר",
    "city": "תל אביב",
    "zipcode": "",
    "lat": 32.0853,
    "lon": 34.7818
  },
  {
    "chain": "shufersal",
    "chain_name": "שופרסל",
    "subchain": "",
    "store_id": "753",
    "name": "גוד מרקט רש\"י ירושלים",
    "address": "53 רש\"י",
    "city": "ירושלים",
    "zipcode": "",
    "lat": 31.7683,
    "lon": 35.2137
  },
  {
    "chain": "shufersal",
    "chain_name": "שופרסל",
    "subchain": "Be",
    "store_id": "482",
    "name": "BE רמלה נווה דורון",
    "address": "",
    "city": "",
    "zipcode": "",
    "lat": null,
    "lon": null
  },
  {
    "chain": "shufersal",
    "chain_name": "שופרסל",
    "subchain": "Be",
    "store_id": "714",
    "name": "Be סכנין",
    "address": "22 אלג’ליל",
    "city": "סכנין",
    "zipcode": "",
    "lat": null,
    "lon": null
  },
  {
    "chain": "shufersal",
    "chain_name": "שופרסל",
    "subchain": "Be",
    "store_id": "713",
    "name": "BE אור ים",
    "address": "2 פרדס רימונים",
    "city": "אור עקיבא",
    "zipcode": "",
    "lat": null,
    "lon": null
  },
  {
    "chain": "shufersal",
    "chain_name": "שופרסל",
    "subchain": "Be",
    "store_id": "684",
    "name": "Be  שדרות",
    "address": "7 מול מנחם בגין",
    "city": "שדרות",
    "zipcode": "",
    "lat": null,
    "lon": null
  },
  {
    "chain": "shufersal",
    "chain_name": "שופרסל",
    "subchain": "שופרסל אקספרס",
    "store_id": "579",
    "name": "אקספרס סביון",
    "address": "1 השיקמה",
    "city": "סביון",
    "zipcode": "",
    "lat": null,
    "lon": null
  },
  {
    "chain": "shufersal",
    "chain_name": "שופרסל",
    "subchain": "יש חסד",
    "store_id": "499",
    "name": "יש חסד עפולה עילית",
    "address": "24 פנחס רוזן",
    "city": "עפולה",
    "zipcode": "",
    "lat": null,
    "lon": null
  },
  {
    "chain": "shufersal",
    "chain_name": "שופרסל",
    "subchain": "שופרסל אקספרס",
    "store_id": "598",
    "name": "אקספרס הירדן",
    "address": "רמת גן הירדן 29",
    "city": "",
    "zipcode": "",
    "lat": null,
    "lon": null
  },
  {
    "chain": "shufersal",
    "chain_name": "שופרסל",
    "subchain": "שופרסל אקספרס",
    "store_id": "741",
    "name": "אקספרס יצחק רבין",
    "address": "34 יצחק רבין",
    "city": "קריית אונו",
    "zipcode": "",
    "lat": null,
    "lon": null
  },
  {
    "chain": "shufersal",
    "chain_name": "שופרסל",
    "subchain": "",
    "store_id": "750",
    "name": "גוד מרקט שירת הים",
    "address": "10 שירת הים",
    "city": "ירושלים",
    "zipcode": "",
    "lat": 31.7683,
    "lon": 35.2137
  },
  {
    "chain": "shufersal",
    "chain_name": "שופרסל",
    "subchain": "שופרסל אקספרס",
    "store_id": "740",
    "name": "אקספרס שלמה המלך",
    "address": "2 שלמה המלך",
    "city": "קריית אונו",
    "zipcode": "",
    "lat": null,
    "lon": null
  },
  {
    "chain": "shufersal",
    "chain_name": "שופרסל",
    "subchain": "שופרסל אקספרס",
    "store_id": "742",
    "name": "אקספרס נווה אביבים",
    "address": "34 יהודה הנשיא",
    "city": "תל אביב",
    "zipcode": "",
    "lat": 32.0853,
    "lon": 34.7818
  },
  {
    "chain": "shufersal",
    "chain_name": "שופרסל",
    "subchain": "שופרסל אקספרס",
    "store_id": "398",
    "name": "אקספרס אגמים",
    "address": "73 עמק יזרעאל",
    "city": "אשקלון",
    "zipcode": "",
    "lat": null,
    "lon": null
  },
  {
    "chain": "shufersal",
    "chain_name": "שופרסל",
    "subchain": "יש חסד",
    "store_id": "765",
    "name": "יש חסד בן איש חי",
    "address": "43 בן איש חי",
    "city": "בית שמש",
    "zipcode": "",
    "lat": null,
    "lon": null
  },
  {
    "chain": "shufersal",
    "chain_name": "שופרסל",
    "subchain": "Be",
    "store_id": "715",
    "name": "BE אגמים",
    "address": "73 עמק יזראל",
    "city": "אשקלון",
    "zipcode": "",
    "lat": null,
    "lon": null
  },
  {
    "chain": "shufersal",
    "chain_name": "שופרסל",
    "subchain": "שופרסל אקספרס",
    "store_id": "599",
    "name": "אקספרס ההסתדרות",
    "address": "27 ההסתדרות",
    "city": "גבעתיים",
    "zipcode": "",
    "lat": 32.07,
    "lon": 34.81
  },
  {
    "chain": "shufersal",
    "chain_name": "שופרסל",
    "subchain": "Be",
    "store_id": "712",
    "name": "BE עין הים חדרה",
    "address": "6 עין הים עין גדי",
    "city": "גבעת אולגה",
    "zipcode": "",
    "lat": null,
    "lon": null
  },
  {
    "chain": "shufersal",
    "chain_name": "שופרסל",
    "subchain": "שופרסל אקספרס",
    "store_id": "743",
    "name": "אקספרס קריית גת",
    "address": "28 הגבורה",
    "city": "קריית גת",
    "zipcode": "",
    "lat": null,
    "lon": null
  },
  {
    "chain": "shufersal",
    "chain_name": "שופרסל",
    "subchain": "יש חסד",
    "store_id": "593",
    "name": "יש חסד באר טוביה",
    "address": "אזור התעשייה",
    "city": "באר טוביה",
    "zipcode": "",
    "lat": null,
    "lon": null
  },
  {
    "chain": "shufersal",
    "chain_name": "שופרסל",
    "subchain": "שופרסל אקספרס",
    "store_id": "596",
    "name": "אקספרס אבן גבירול",
    "address": "124 אבן גבירול",
    "city": "תל אביב",
    "zipcode": "",
    "lat": 32.0853,
    "lon": 34.7818
  },
  {
    "chain": "shufersal",
    "chain_name": "שופרסל",
    "subchain": "שופרסל אקספרס",
    "store_id": "595",
    "name": "אקספרס בת חפר",
    "address": "שדרות עמק חפר",
    "city": "בת חפר",
    "zipcode": "",
    "lat": null,
    "lon": null
  },
  {
    "chain": "shufersal",
    "chain_name": "שופרסל",
    "subchain": "שופרסל דיל",
    "store_id": "854",
    "name": "דיל גבעת אלונים",
    "address": "1 דוכיפת",
    "city": "קריית אתא",
    "zipcode": "",
    "lat": null,
    "lon": null
  },
  {
    "chain": "shufersal",
    "chain_name": "שופרסל",
    "subchain": "שופרסל אקספרס",
    "store_id": "846",
    "name": "אקספרס אור ים",
    "address": "34 דוד המלך",
    "city": "אור עקיבא",
    "zipcode": "",
    "lat": null,
    "lon": null
  },
  {
    "chain": "shufersal",
    "chain_name": "שופרסל",
    "subchain": "Be",
    "store_id": "716",
    "name": "Be mall 7  באר שבע",
    "address": "30 הע\"ל",
    "city": "באר שבע",
    "zipcode": "",
    "lat": 31.253,
    "lon": 34.7915
  },
  {
    "chain": "shufersal",
    "chain_name": "שופרסל",
    "subchain": "Be",
    "store_id": "748",
    "name": "BE שבעת הכוכבים אילת",
    "address": "7 דרך הערבה",
    "city": "אילת",
    "zipcode": "",
    "lat": null,
    "lon": null
  },
  {
    "chain": "shufersal",
    "chain_name": "שופרסל",
    "subchain": "יוניברס",
    "store_id": "210",
    "name": "יוניברס ראשל\"צ- שמוטקין",
    "address": "שמוטקין 30",
    "city": "ראשון לציון",
    "zipcode": "7536333",
    "lat": 31.973,
    "lon": 34.7925
  },
  {
    "chain": "shufersal",
    "chain_name": "שופרסל",
    "subchain": "יוניברס",
    "store_id": "297",
    "name": "יוניברס חדרה- ארבע האגודות",
    "address": "ארבע אגודות 1",
    "city": "חדרה",
    "zipcode": "3843101",
    "lat": null,
    "lon": null
  },
  {
    "chain": "shufersal",
    "chain_name": "שופרסל",
    "subchain": "שופרסל אקספרס",
    "store_id": "489",
    "name": "אקספרס מודיעין",
    "address": "26 חיים ויצמן",
    "city": "מודיעין",
    "zipcode": "",
    "lat": null,
    "lon": null
  },
  {
    "chain": "shufersal",
    "chain_name": "שופרסל",
    "subchain": "",
    "store_id": "734",
    "name": "גוד מרקט גאולה חיפה",
    "address": "28 גאולה",
    "city": "חיפה",
    "zipcode": "",
    "lat": 32.794,
    "lon": 34.9896
  },
  {
    "chain": "shufersal",
    "chain_name": "שופרסל",
    "subchain": "יוניברס",
    "store_id": "106",
    "name": "יוניברס נס ציונה - הפטיש",
    "address": "הפטיש 8,א.ת.",
    "city": "נס ציונה",
    "zipcode": "7404730",
    "lat": null,
    "lon": null
  },
  {
    "chain": "shufersal",
    "chain_name": "שופרסל",
    "subchain": "שופרסל דיל",
    "store_id": "250",
    "name": "קריית שמונה",
    "address": "",
    "city": "",
    "zipcode": "",
    "lat": null,
    "lon": null
  },
  {
    "chain": "shufersal",
    "chain_name": "שופרסל",
    "subchain": "יוניברס",
    "store_id": "134",
    "name": "יוניברס מודיעין- ישפרו סנטר",
    "address": "ישפרו סנטר",
    "city": "מודיעין",
    "zipcode": "",
    "lat": null,
    "lon": null
  },
  {
    "chain": "shufersal",
    "chain_name": "שופרסל",
    "subchain": "יוניברס",
    "store_id": "135",
    "name": "יוניברס אשקלון- פאור סנטר",
    "address": "צומת כפר סילבר",
    "city": "אשקלון",
    "zipcode": "7929500",
    "lat": null,
    "lon": null
  },
  {
    "chain": "shufersal",
    "chain_name": "שופרסל",
    "subchain": "שופרסל דיל",
    "store_id": "183",
    "name": "דיל אשדוד- הרצל",
    "address": "1 רח' הרצל",
    "city": "אשדוד",
    "zipcode": "7745401",
    "lat": 31.8044,
    "lon": 34.6553
  },
  {
    "chain": "shufersal",
    "chain_name": "שופרסל",
    "subchain": "יוניברס",
    "store_id": "276",
    "name": "יוניברס אמט\"ל רחובות",
    "address": "רח משה יתום  46",
    "city": "רחובות",
    "zipcode": "76396",
    "lat": null,
    "lon": null
  },
  {
    "chain": "shufersal",
    "chain_name": "שופרסל",
    "subchain": "יוניברס",
    "store_id": "269",
    "name": "יוניברס פ\"ת- סגולה",
    "address": "הרב מסעוד אשר20א",
    "city": "פתח תקווה",
    "zipcode": "4900519",
    "lat": 32.0841,
    "lon": 34.8878
  },
  {
    "chain": "shufersal",
    "chain_name": "שופרסל",
    "subchain": "יוניברס",
    "store_id": "71",
    "name": "יוניברס תל חנן  נשר",
    "address": "בר יהודה 147",
    "city": "נשר",
    "zipcode": "3688306",
    "lat": null,
    "lon": null
  },
  {
    "chain": "shufersal",
    "chain_name": "שופרסל",
    "subchain": "",
    "store_id": "448",
    "name": "שערי רווחה",
    "address": "25 ירמיהו",
    "city": "ירושלים",
    "zipcode": "9446710",
    "lat": 31.7683,
    "lon": 35.2137
  },
  {
    "chain": "shufersal",
    "chain_name": "שופרסל",
    "subchain": "יוניברס",
    "store_id": "195",
    "name": "יוניברס קריון- דרך עכו",
    "address": "דרך עכו  192",
    "city": "קרית ביאליק",
    "zipcode": "2723211",
    "lat": null,
    "lon": null
  },
  {
    "chain": "shufersal",
    "chain_name": "שופרסל",
    "subchain": "",
    "store_id": "737",
    "name": "המפיץ סיטונאות באר שבע",
    "address": "סולל בונה 2",
    "city": "באר שבע",
    "zipcode": "",
    "lat": 31.253,
    "lon": 34.7915
  },
  {
    "chain": "shufersal",
    "chain_name": "שופרסל",
    "subchain": "יוניברס",
    "store_id": "13",
    "name": "יוניברס בית שמש- העליה",
    "address": "העליה 1",
    "city": "בית-שמש",
    "zipcode": "9902101",
    "lat": null,
    "lon": null
  },
  {
    "chain": "shufersal",
    "chain_name": "שופרסל",
    "subchain": "יוניברס",
    "store_id": "218",
    "name": "יוניברס עפולה- יצחק רבין",
    "address": "שד' יצחק רבין 5",
    "city": "עפולה",
    "zipcode": "1834171",
    "lat": null,
    "lon": null
  },
  {
    "chain": "shufersal",
    "chain_name": "שופרסל",
    "subchain": "יוניברס",
    "store_id": "259",
    "name": "יוניברס גזית כ\"ס- ויצמן",
    "address": "ויצמן 300 מתחם G",
    "city": "כפר סבא",
    "zipcode": "4439656",
    "lat": 32.178,
    "lon": 34.9065
  },
  {
    "chain": "shufersal",
    "chain_name": "שופרסל",
    "subchain": "שופרסל דיל",
    "store_id": "215",
    "name": "דיל בית שאן-ירושלים הבירה",
    "address": "ירושלים הבירה",
    "city": "בית שאן",
    "zipcode": "10900",
    "lat": null,
    "lon": null
  },
  {
    "chain": "shufersal",
    "chain_name": "שופרסל",
    "subchain": "יוניברס",
    "store_id": "251",
    "name": "יוניברס עפולה- כורש",
    "address": "כורש 5",
    "city": "עפולה",
    "zipcode": "1831007",
    "lat": null,
    "lon": null
  },
  {
    "chain": "shufersal",
    "chain_name": "שופרסל",
    "subchain": "Be",
    "store_id": "172",
    "name": "BE באר יעקב",
    "address": "11 שדרות יצחק שמיר",
    "city": "באר יעקב",
    "zipcode": "",
    "lat": null,
    "lon": null
  },
  {
    "chain": "shufersal",
    "chain_name": "שופרסל",
    "subchain": "שופרסל אקספרס",
    "store_id": "744",
    "name": "אקספרס אשקלון",
    "address": "2 עמק האלה",
    "city": "אשקלון",
    "zipcode": "",
    "lat": null,
    "lon": null
  },
  {
    "chain": "shufersal",
    "chain_name": "שופרסל",
    "subchain": "",
    "store_id": "840",
    "name": "גוד מרקט חריש",
    "address": "1 אלה",
    "city": "חריש",
    "zipcode": "",
    "lat": null,
    "lon": null
  },
  {
    "chain": "shufersal",
    "chain_name": "שופרסל",
    "subchain": "יוניברס",
    "store_id": "124",
    "name": "יוניברסבת ים- אורט ישראל",
    "address": "אורט ישראל 25",
    "city": "בת-ים",
    "zipcode": "5959036",
    "lat": null,
    "lon": null
  },
  {
    "chain": "shufersal",
    "chain_name": "שופרסל",
    "subchain": "יוניברס",
    "store_id": "128",
    "name": "יוניברסטירת הכרמל- נחום חת",
    "address": "נחום חת 5",
    "city": "טירת הכרמל",
    "zipcode": "35085",
    "lat": null,
    "lon": null
  },
  {
    "chain": "shufersal",
    "chain_name": "שופרסל",
    "subchain": "יוניברס",
    "store_id": "211",
    "name": "יוניברס כרמיאל- אזור התעשיה",
    "address": "א.ת חוצות כרמיאל",
    "city": "כרמיאל",
    "zipcode": "2165006",
    "lat": null,
    "lon": null
  },
  {
    "chain": "shufersal",
    "chain_name": "שופרסל",
    "subchain": "Be",
    "store_id": "112",
    "name": "BE קרית מוצקין",
    "address": "ש\"י עגנון 18",
    "city": "קריית מוצקין",
    "zipcode": "",
    "lat": null,
    "lon": null
  },
  {
    "chain": "shufersal",
    "chain_name": "שופרסל",
    "subchain": "יוניברס",
    "store_id": "91",
    "name": "יוניברס עמק חפר- אזור תעשיה",
    "address": "א.ת. עמק חפר",
    "city": "חדרה",
    "zipcode": "3877701",
    "lat": null,
    "lon": null
  },
  {
    "chain": "shufersal",
    "chain_name": "שופרסל",
    "subchain": "יוניברס",
    "store_id": "241",
    "name": "יוניברס בני ברק איילון",
    "address": "הלח\"י 28",
    "city": "בני ברק",
    "zipcode": "5120045",
    "lat": 32.0833,
    "lon": 34.8333
  },
  {
    "chain": "shufersal",
    "chain_name": "שופרסל",
    "subchain": "שופרסל דיל",
    "store_id": "357",
    "name": "דיל צורן קדימה- לב השרון",
    "address": "דרך לב השרון 422",
    "city": "צורן",
    "zipcode": "4282300",
    "lat": null,
    "lon": null
  },
  {
    "chain": "shufersal",
    "chain_name": "שופרסל",
    "subchain": "יוניברס",
    "store_id": "166",
    "name": "יוניברס אקסטרה  אשדוד- הבושם",
    "address": "הבושם 7 א.ת. קלה",
    "city": "אשדוד",
    "zipcode": "7761007",
    "lat": 31.8044,
    "lon": 34.6553
  },
  {
    "chain": "shufersal",
    "chain_name": "שופרסל",
    "subchain": "יוניברס",
    "store_id": "182",
    "name": "יוניברס דימונה- גולדה מאיר",
    "address": "גולדה מאיר 1",
    "city": "דימונה",
    "zipcode": "86000",
    "lat": null,
    "lon": null
  },
  {
    "chain": "shufersal",
    "chain_name": "שופרסל",
    "subchain": "יוניברס",
    "store_id": "214",
    "name": "יוניברס קרית גת- מלכי ישראל",
    "address": "מלכי ישראל 178",
    "city": "קרית גת",
    "zipcode": "8205002",
    "lat": null,
    "lon": null
  },
  {
    "chain": "shufersal",
    "chain_name": "שופרסל",
    "subchain": "יוניברס",
    "store_id": "283",
    "name": "יוניברס קרית עקרון-ביל\"ו",
    "address": "מ.תדיראן,ק.עקרון",
    "city": "רחובות",
    "zipcode": "7692000",
    "lat": null,
    "lon": null
  },
  {
    "chain": "shufersal",
    "chain_name": "שופרסל",
    "subchain": "שופרסל אקספרס",
    "store_id": "511",
    "name": "אקספרס רסקו נצרת",
    "address": "מרכז רסקו רח' עצמון",
    "city": "נוף הגליל",
    "zipcode": "",
    "lat": null,
    "lon": null
  },
  {
    "chain": "shufersal",
    "chain_name": "שופרסל",
    "subchain": "שופרסל שלי",
    "store_id": "756",
    "name": "שלי באר יעקב",
    "address": "17 יצחק שמיר",
    "city": "באר יעקב",
    "zipcode": "",
    "lat": null,
    "lon": null
  },
  {
    "chain": "shufersal",
    "chain_name": "שופרסל",
    "subchain": "שופרסל דיל",
    "store_id": "730",
    "name": "חנות עובדים מרכז שילוח קדימה",
    "address": "12 הזרם",
    "city": "קדימה",
    "zipcode": "",
    "lat": null,
    "lon": null
  },
  {
    "chain": "shufersal",
    "chain_name": "שופרסל",
    "subchain": "Be",
    "store_id": "657",
    "name": "Be קריית שמונה",
    "address": "4 קניון שמונה סנטר צ'רנחובסקי",
    "city": "קרית שמונה",
    "zipcode": "",
    "lat": null,
    "lon": null
  },
  {
    "chain": "shufersal",
    "chain_name": "שופרסל",
    "subchain": "Be",
    "store_id": "518",
    "name": "Be כפר קרע",
    "address": "61 אל קודס",
    "city": "כפר קרע",
    "zipcode": "",
    "lat": null,
    "lon": null
  },
  {
    "chain": "shufersal",
    "chain_name": "שופרסל",
    "subchain": "יוניברס",
    "store_id": "35",
    "name": "יוניברס באר שבע וולפסון",
    "address": "רח' וולפסון 13",
    "city": "באר שבע",
    "zipcode": "8489721",
    "lat": 31.253,
    "lon": 34.7915
  },
  {
    "chain": "kingstore",
    "chain_name": "אלמשהדאוי קינג סטור בע\"מ",
    "subchain": "",
    "store_id": "1",
    "name": "אום אלפחם",
    "address": "שרפה 22 0",
    "city": "אום אל פחם",
    "zipcode": "30010",
    "lat": null,
    "lon": null
  },
  {
    "chain": "kingstore",
    "chain_name": "אלמשהדאוי קינג סטור בע\"מ",
    "subchain": "",
    "store_id": "2",
    "name": "דבוריה",
    "address": "דרך אלשראר 0",
    "city": "דבוריה",
    "zipcode": "16910",
    "lat": null,
    "lon": null
  },
  {
    "chain": "kingstore",
    "chain_name": "אלמשהדאוי קינג סטור בע\"מ",
    "subchain": "",
    "store_id": "3",
    "name": "פרידיס",
    "address": "דירה 1 0",
    "city": "פוריידיס",
    "zipcode": "30898",
    "lat": null,
    "lon": null
  },
  {
    "chain": "kingstore",
    "chain_name": "אלמשהדאוי קינג סטור בע\"מ",
    "subchain": "",
    "store_id": "5",
    "name": "קלנסווה",
    "address": "unknown",
    "city": "קלנסווה",
    "zipcode": "40640",
    "lat": null,
    "lon": null
  },
  {
    "chain": "kingstore",
    "chain_name": "אלמשהדאוי קינג סטור בע\"מ",
    "subchain": "",
    "store_id": "6",
    "name": "שפרעם",
    "address": "אלשכארה 19 0",
    "city": "שפרעם",
    "zipcode": "20200",
    "lat": null,
    "lon": null
  },
  {
    "chain": "kingstore",
    "chain_name": "אלמשהדאוי קינג סטור בע\"מ",
    "subchain": "",
    "store_id": "7",
    "name": "סכנין",
    "address": "אל ג'ליל 0",
    "city": "סכנין",
    "zipcode": "30810",
    "lat": null,
    "lon": null
  },
  {
    "chain": "kingstore",
    "chain_name": "אלמשהדאוי קינג סטור בע\"מ",
    "subchain": "",
    "store_id": "8",
    "name": "באר שבע",
    "address": "קישון  32 0",
    "city": "באר שבע",
    "zipcode": "8413301",
    "lat": 31.253,
    "lon": 34.7915
  },
  {
    "chain": "kingstore",
    "chain_name": "אלמשהדאוי קינג סטור בע\"מ",
    "subchain": "",
    "store_id": "9",
    "name": "טמרה",
    "address": "unknown",
    "city": "טמרה",
    "zipcode": "30811",
    "lat": null,
    "lon": null
  },
  {
    "chain": "kingstore",
    "chain_name": "אלמשהדאוי קינג סטור בע\"מ",
    "subchain": "",
    "store_id": "10",
    "name": "דליית אל כרמל",
    "address": "ואדי אלפש 0",
    "city": "דליית אל כרמל",
    "zipcode": "30056",
    "lat": null,
    "lon": null
  },
  {
    "chain": "kingstore",
    "chain_name": "אלמשהדאוי קינג סטור בע\"מ",
    "subchain": "",
    "store_id": "12",
    "name": "נוף הגליל דודג' סנטר",
    "address": "דרך העמק 4 0",
    "city": "נצרת עילית -  נוף הגליל",
    "zipcode": "17091",
    "lat": null,
    "lon": null
  },
  {
    "chain": "kingstore",
    "chain_name": "אלמשהדאוי קינג סטור בע\"מ",
    "subchain": "",
    "store_id": "13",
    "name": "קאסם",
    "address": "לב הארץ , אזור תעשייה 5",
    "city": "כפר קאסם",
    "zipcode": "48810",
    "lat": null,
    "lon": null
  },
  {
    "chain": "kingstore",
    "chain_name": "אלמשהדאוי קינג סטור בע\"מ",
    "subchain": "",
    "store_id": "14",
    "name": "כבאביר חיפה",
    "address": "הלבונה 7 0",
    "city": "חיפה",
    "zipcode": "34386",
    "lat": 32.794,
    "lon": 34.9896
  },
  {
    "chain": "kingstore",
    "chain_name": "אלמשהדאוי קינג סטור בע\"מ",
    "subchain": "",
    "store_id": "15",
    "name": "כרמיאל",
    "address": "היוצרים 15",
    "city": "כרמיאל",
    "zipcode": "21626",
    "lat": null,
    "lon": null
  },
  {
    "chain": "kingstore",
    "chain_name": "אלמשהדאוי קינג סטור בע\"מ",
    "subchain": "",
    "store_id": "16",
    "name": "עכו",
    "address": "בן עמי 69",
    "city": "עכו",
    "zipcode": "24120",
    "lat": null,
    "lon": null
  },
  {
    "chain": "kingstore",
    "chain_name": "אלמשהדאוי קינג סטור בע\"מ",
    "subchain": "",
    "store_id": "17",
    "name": "יפיע",
    "address": "unknown",
    "city": "יפיע",
    "zipcode": "16955",
    "lat": null,
    "lon": null
  },
  {
    "chain": "kingstore",
    "chain_name": "אלמשהדאוי קינג סטור בע\"מ",
    "subchain": "",
    "store_id": "18",
    "name": "יפת-יפו תל אביב יום ביום",
    "address": "יפת 65 0",
    "city": "תל אביב - יפו",
    "zipcode": "16955",
    "lat": null,
    "lon": null
  },
  {
    "chain": "kingstore",
    "chain_name": "אלמשהדאוי קינג סטור בע\"מ",
    "subchain": "",
    "store_id": "19",
    "name": "רמלה",
    "address": "קריית הממשלה 0",
    "city": "רמלה",
    "zipcode": "16955",
    "lat": null,
    "lon": null
  },
  {
    "chain": "kingstore",
    "chain_name": "אלמשהדאוי קינג סטור בע\"מ",
    "subchain": "",
    "store_id": "27",
    "name": "בסמת טבעון",
    "address": "דרך יצחק רבין 0",
    "city": "בסמת טבעון",
    "zipcode": "360080",
    "lat": null,
    "lon": null
  },
  {
    "chain": "kingstore",
    "chain_name": "אלמשהדאוי קינג סטור בע\"מ",
    "subchain": "",
    "store_id": "28",
    "name": "מיני קינגסטור רהט",
    "address": "אלפג'ר 37 0",
    "city": "רהט",
    "zipcode": "853570",
    "lat": null,
    "lon": null
  },
  {
    "chain": "kingstore",
    "chain_name": "אלמשהדאוי קינג סטור בע\"מ",
    "subchain": "",
    "store_id": "30",
    "name": "כפר כנא",
    "address": "754, כביש ראשי 0",
    "city": "כפר כנא",
    "zipcode": "0000000",
    "lat": null,
    "lon": null
  },
  {
    "chain": "kingstore",
    "chain_name": "אלמשהדאוי קינג סטור בע\"מ",
    "subchain": "",
    "store_id": "31",
    "name": "צים סנטר נוף הגליל",
    "address": "שדרות מעלה יצחק 29 0",
    "city": "נצרת עילית -  נוף הגליל",
    "zipcode": "0000000",
    "lat": null,
    "lon": null
  },
  {
    "chain": "kingstore",
    "chain_name": "אלמשהדאוי קינג סטור בע\"מ",
    "subchain": "",
    "store_id": "200",
    "name": "ואדי אלגוז'",
    "address": "חאלד אבן אל וליד 0",
    "city": "ירושלים",
    "zipcode": "9740257",
    "lat": 31.7683,
    "lon": 35.2137
  },
  {
    "chain": "kingstore",
    "chain_name": "אלמשהדאוי קינג סטור בע\"מ",
    "subchain": "",
    "store_id": "334",
    "name": "מיני קינגסטור דיר חנא",
    "address": "אלקודס 0",
    "city": "דיר חנא",
    "zipcode": "249730",
    "lat": null,
    "lon": null
  },
  {
    "chain": "kingstore",
    "chain_name": "אלמשהדאוי קינג סטור בע\"מ",
    "subchain": "",
    "store_id": "336",
    "name": "מיני קינגסטור קלנסווה",
    "address": "אלרשיד 0",
    "city": "קלנסווה",
    "zipcode": "40640",
    "lat": null,
    "lon": null
  },
  {
    "chain": "kingstore",
    "chain_name": "אלמשהדאוי קינג סטור בע\"מ",
    "subchain": "",
    "store_id": "338",
    "name": "מיני קינג חיי אלוורוד",
    "address": "עומר אבן אל ח'טאב 0",
    "city": "נצרת",
    "zipcode": "1601003",
    "lat": null,
    "lon": null
  },
  {
    "chain": "kingstore",
    "chain_name": "אלמשהדאוי קינג סטור בע\"מ",
    "subchain": "",
    "store_id": "339",
    "name": "יפו מכללה יום ביום",
    "address": "unknown",
    "city": "תל אביב - יפו",
    "zipcode": "0000000",
    "lat": null,
    "lon": null
  },
  {
    "chain": "kingstore",
    "chain_name": "אלמשהדאוי קינג סטור בע\"מ",
    "subchain": "",
    "store_id": "340",
    "name": "מיני קינג סח'נין",
    "address": "מחמוד דרויש , אסלאם 0",
    "city": "סח'נין",
    "zipcode": "30810",
    "lat": null,
    "lon": null
  }
]